[
  {
    "name": "St Francis Xavier College",
    "street": "12 Barnard Circuit, Florey",
    "city": "ACT",
    "state": "Australian Capital Territory",
    "address": "12 Barnard Circuit, Florey, Australian Capital Territory",
    "latitude": -35.2245479,
    "longitude": 149.0411149,
    "postcode": "2615",
    "program_number": "Program-0168",
    "start_time": "2016-05-18T18:10:00.000Z",
    "event_type": "Standard",
    "year": "9",
    "num_of_events_cohort": 1,
    "students_attended": 215,
    "students_surveyed": 148,
    "help_seeking": 68,
    "engagement": 81
  },
  {
    "name": "Radford College",
    "street": "1 College St, Bruce",
    "city": "ACT",
    "state": "Australian Capital Territory",
    "address": "1 College St, Bruce, Australian Capital Territory",
    "latitude": -35.2442802,
    "longitude": 149.0884075,
    "postcode": "2617",
    "program_number": "Program-0025",
    "start_time": "2015-08-06T16:45:00.000Z",
    "event_type": "Standard",
    "year": "12",
    "num_of_events_cohort": 1,
    "students_attended": 165,
    "students_surveyed": 146,
    "help_seeking": 69,
    "engagement": 95
  },
  {
    "name": "Daramalan College",
    "street": "Cowper Street, Dickson",
    "city": "ACT",
    "state": "Australian Capital Territory",
    "address": "Cowper Street, Dickson, Australian Capital Territory",
    "latitude": -35.2548138999999,
    "longitude": 149.1389487,
    "postcode": "2602",
    "program_number": "Program-0374",
    "start_time": "2012-04-03T20:00:00.000Z",
    "event_type": "Standard",
    "year": "9; 10; 11; 12",
    "num_of_events_cohort": 1,
    "students_attended": 500,
    "students_surveyed": "",
    "help_seeking": "",
    "engagement": ""
  },
  {
    "name": "Gungahlin College",
    "street": "23 Gozzard Street, Gungahlin",
    "city": "ACT",
    "state": "Australian Capital Territory",
    "address": "23 Gozzard Street, Gungahlin, Australian Capital Territory",
    "latitude": -35.1855885,
    "longitude": 149.1311192,
    "postcode": "2912",
    "program_number": "Program-0194",
    "start_time": "2014-06-05T20:30:00.000Z",
    "event_type": "Standard",
    "year": "11; 12",
    "num_of_events_cohort": 1,
    "students_attended": 200,
    "students_surveyed": 118,
    "help_seeking": 73,
    "engagement": 91
  },
  {
    "name": "St Clare's College Canberra",
    "street": "1 McMillan Crescent, Griffith",
    "city": "ACT",
    "state": "Australian Capital Territory",
    "address": "1 McMillan Crescent, Griffith, Australian Capital Territory",
    "latitude": -35.3225586,
    "longitude": 149.1457936,
    "postcode": "2603",
    "program_number": "Program-0448",
    "start_time": "2017-05-31T19:00:00.000Z",
    "event_type": "Stressed Out?",
    "year": "11",
    "num_of_events_cohort": 3,
    "students_attended": 180,
    "students_surveyed": 113,
    "help_seeking": 71,
    "engagement": 81
  },
  {
    "name": "Hawker College",
    "street": "Murranji Street, Hawker",
    "city": "ACT",
    "state": "Australian Capital Territory",
    "address": "Murranji Street, Hawker, Australian Capital Territory",
    "latitude": -35.2477349,
    "longitude": 149.0372568,
    "postcode": "2614",
    "program_number": "Program-0030",
    "start_time": "2015-04-07T19:00:00.000Z",
    "event_type": "Standard",
    "year": "12",
    "num_of_events_cohort": 1,
    "students_attended": 200,
    "students_surveyed": 100,
    "help_seeking": 54,
    "engagement": 86
  },
  {
    "name": "Dickson College",
    "street": "Phillip Ave, Dickson",
    "city": "ACT",
    "state": "Australian Capital Territory",
    "address": "Phillip Ave, Dickson, Australian Capital Territory",
    "latitude": -35.2486004999999,
    "longitude": 149.1547265,
    "postcode": "2602",
    "program_number": "Program-0035",
    "start_time": "2015-05-25T19:15:00.000Z",
    "event_type": "Standard",
    "year": "11; 12",
    "num_of_events_cohort": 1,
    "students_attended": 500,
    "students_surveyed": 392,
    "help_seeking": 52,
    "engagement": 76
  },
  {
    "name": "Lyneham High School",
    "street": "Murdoch Street, Lyneham",
    "city": "ACT",
    "state": "Australian Capital Territory",
    "address": "Murdoch Street, Lyneham, Australian Capital Territory",
    "latitude": -35.252538,
    "longitude": 149.132125,
    "postcode": "2602",
    "program_number": "Program-0290",
    "start_time": "2016-07-18T21:00:00.000Z",
    "event_type": "Standard",
    "year": "10",
    "num_of_events_cohort": 1,
    "students_attended": 200,
    "students_surveyed": 167,
    "help_seeking": 65,
    "engagement": 75
  },
  {
    "name": "St Mary MacKillop College",
    "street": "Ellerston Avenue, Isabella Plains",
    "city": "ACT",
    "state": "Australian Capital Territory",
    "address": "Ellerston Avenue, Isabella Plains, Australian Capital Territory",
    "latitude": -35.4322671,
    "longitude": 149.093408,
    "postcode": "2905",
    "program_number": "Program-0686",
    "start_time": "2017-08-30T16:15:00.000Z",
    "event_type": "Standard",
    "year": "10",
    "num_of_events_cohort": 1,
    "students_attended": 300,
    "students_surveyed": 220,
    "help_seeking": 55,
    "engagement": 68
  },
  {
    "name": "Alfred Deakin High School",
    "street": "Denison Street, Deakin",
    "city": "ACT",
    "state": "Australian Capital Territory",
    "address": "Denison Street, Deakin, Australian Capital Territory",
    "latitude": -35.3209187,
    "longitude": 149.0940036,
    "postcode": "2600",
    "program_number": "Program-0488",
    "start_time": "2017-03-21T22:30:00.000Z",
    "event_type": "Teacher PD",
    "year": "",
    "num_of_events_cohort": 1,
    "students_attended": 50,
    "students_surveyed": "",
    "help_seeking": "",
    "engagement": ""
  },
  {
    "name": "Merici College",
    "street": "10 Wise Street, Braddon",
    "city": "ACT",
    "state": "Australian Capital Territory",
    "address": "10 Wise Street, Braddon, Australian Capital Territory",
    "latitude": -35.2677592,
    "longitude": 149.136908,
    "postcode": "2612",
    "program_number": "Program-0595",
    "start_time": "2017-08-16T16:45:00.000Z",
    "event_type": "Standard",
    "year": "9",
    "num_of_events_cohort": 1,
    "students_attended": 150,
    "students_surveyed": 123,
    "help_seeking": 62,
    "engagement": 83
  },
  {
    "name": "St George Girls High School",
    "street": "Victoria Street, Kogarah",
    "city": "",
    "state": "New South Wales",
    "address": "Victoria Street, Kogarah, New South Wales",
    "latitude": -33.9600261,
    "longitude": 151.1359543,
    "postcode": "2217",
    "program_number": "Program-0014",
    "start_time": "2015-03-03T17:00:00.000Z",
    "event_type": "Standard",
    "year": "11",
    "num_of_events_cohort": 1,
    "students_attended": 170,
    "students_surveyed": 151,
    "help_seeking": 64,
    "engagement": 80
  },
  {
    "name": "Oxley High School",
    "street": "",
    "city": "Tamworth",
    "state": "New South Wales",
    "address": ", New South Wales",
    "latitude": -31.2532183,
    "longitude": 146.921099,
    "postcode": "2340",
    "program_number": "Program-0303",
    "start_time": "2016-05-05T16:00:00.000Z",
    "event_type": "Standard",
    "year": "11",
    "num_of_events_cohort": 1,
    "students_attended": 150,
    "students_surveyed": 80,
    "help_seeking": 69,
    "engagement": 85
  },
  {
    "name": "Domremy College",
    "street": "121 First Ave, Five Dock NSW",
    "city": "SYDNEY",
    "state": "New South Wales",
    "address": "121 First Ave, Five Dock NSW, New South Wales",
    "latitude": -33.8688449,
    "longitude": 151.1339652,
    "postcode": "2046",
    "program_number": "Program-0325",
    "start_time": "2017-03-14T18:05:00.000Z",
    "event_type": "Standard",
    "year": "12",
    "num_of_events_cohort": 1,
    "students_attended": 100,
    "students_surveyed": 77,
    "help_seeking": 68,
    "engagement": 86
  },
  {
    "name": "Kesser Torah College",
    "street": "Cnr Blake and Napier Streets Dover Heights",
    "city": "Sydney",
    "state": "New South Wales",
    "address": "Cnr Blake and Napier Streets Dover Heights, New South Wales",
    "latitude": -33.8726971,
    "longitude": 151.2818865,
    "postcode": "2030",
    "program_number": "Program-0341",
    "start_time": "2016-05-13T16:15:00.000Z",
    "event_type": "Standard",
    "year": "9; 10; 11; 12",
    "num_of_events_cohort": 1,
    "students_attended": 49,
    "students_surveyed": 39,
    "help_seeking": 85,
    "engagement": 97
  },
  {
    "name": "The Armidale School",
    "street": "The Armidale School Locked Bag 3003",
    "city": "Armidale",
    "state": "New South Wales",
    "address": "The Armidale School Locked Bag 3003, New South Wales",
    "latitude": -30.5203162,
    "longitude": 151.6744432,
    "postcode": "2350",
    "program_number": "Program-0770",
    "start_time": "2017-05-03T20:00:00.000Z",
    "event_type": "Making an impact",
    "year": "10; 11; 12",
    "num_of_events_cohort": 1,
    "students_attended": "",
    "students_surveyed": "",
    "help_seeking": "",
    "engagement": ""
  },
  {
    "name": "Our Lady of Mercy Catholic College Burraneer",
    "street": "62-66 Dominic Street, Burraneer NSW",
    "city": "SYDNEY",
    "state": "New South Wales",
    "address": "62-66 Dominic Street, Burraneer NSW, New South Wales",
    "latitude": -34.0542808,
    "longitude": 151.1351206,
    "postcode": "2230",
    "program_number": "Program-0077",
    "start_time": "2015-09-03T18:20:00.000Z",
    "event_type": "Standard",
    "year": "9",
    "num_of_events_cohort": 1,
    "students_attended": 190,
    "students_surveyed": 98,
    "help_seeking": 61,
    "engagement": 89
  },
  {
    "name": "Cherrybrook Technology High School",
    "street": "58 Purchase Road, Cherrybrook",
    "city": "SYDNEY",
    "state": "New South Wales",
    "address": "58 Purchase Road, Cherrybrook, New South Wales",
    "latitude": -33.7180185,
    "longitude": 151.0399169,
    "postcode": "2126",
    "program_number": "Program-0316",
    "start_time": "2016-04-26T20:00:00.000Z",
    "event_type": "Teacher PD",
    "year": "",
    "num_of_events_cohort": "",
    "students_attended": 130,
    "students_surveyed": "",
    "help_seeking": "",
    "engagement": ""
  },
  {
    "name": "Patrician Brothers' College Fairfield",
    "street": "268 The Horsley Drive, Fairfield NSW",
    "city": "SYDNEY",
    "state": "New South Wales",
    "address": "268 The Horsley Drive, Fairfield NSW, New South Wales",
    "latitude": -33.8717106,
    "longitude": 150.9629381,
    "postcode": "2165",
    "program_number": "Program-0069",
    "start_time": "2015-08-19T16:00:00.000Z",
    "event_type": "Standard",
    "year": "11; 12",
    "num_of_events_cohort": 1,
    "students_attended": 400,
    "students_surveyed": 400,
    "help_seeking": "",
    "engagement": ""
  },
  {
    "name": "Armidale High School",
    "street": "Butler Street",
    "city": "Armidale",
    "state": "New South Wales",
    "address": "Butler Street, New South Wales",
    "latitude": -30.5136757999999,
    "longitude": 151.6558648,
    "postcode": "2350",
    "program_number": "Program-0568",
    "start_time": "2017-05-30T18:10:00.000Z",
    "event_type": "Standard",
    "year": "11",
    "num_of_events_cohort": 1,
    "students_attended": 90,
    "students_surveyed": 52,
    "help_seeking": 58,
    "engagement": 79
  },
  {
    "name": "St Augustine's College Sydney",
    "street": "Federal Parade, Brookvale NSW",
    "city": "SYDNEY",
    "state": "New South Wales",
    "address": "Federal Parade, Brookvale NSW, New South Wales",
    "latitude": -33.7587714,
    "longitude": 151.2740576,
    "postcode": "2100",
    "program_number": "Program-0478",
    "start_time": "2017-02-24T17:00:00.000Z",
    "event_type": "Standard",
    "year": "9",
    "num_of_events_cohort": 1,
    "students_attended": 160,
    "students_surveyed": 155,
    "help_seeking": 74,
    "engagement": 87
  },
  {
    "name": "St Joseph's Catholic College",
    "street": "Russell Drysdale St, East Gosford",
    "city": "Gosford",
    "state": "New South Wales",
    "address": "Russell Drysdale St, East Gosford, New South Wales",
    "latitude": -33.4386271,
    "longitude": 151.349914,
    "postcode": "2250",
    "program_number": "Program-0739",
    "start_time": "2018-03-08T17:00:00.000Z",
    "event_type": "Look Out For Your Mates",
    "year": "11",
    "num_of_events_cohort": 2,
    "students_attended": 150,
    "students_surveyed": "",
    "help_seeking": "",
    "engagement": ""
  },
  {
    "name": "Good Samaritan Catholic College",
    "street": "401 Hoxton Park Road, Hinchinbrook NSW",
    "city": "SYDNEY",
    "state": "New South Wales",
    "address": "401 Hoxton Park Road, Hinchinbrook NSW, New South Wales",
    "latitude": -33.9258874,
    "longitude": 150.8605128,
    "postcode": "2168",
    "program_number": "Program-0184",
    "start_time": "2016-07-22T18:20:00.000Z",
    "event_type": "Standard",
    "year": "9",
    "num_of_events_cohort": 1,
    "students_attended": 215,
    "students_surveyed": 182,
    "help_seeking": 63,
    "engagement": 66
  },
  {
    "name": "All Saints Catholic Senior College",
    "street": "71 Leacocks Ln, Casula NSW",
    "city": "SYDNEY",
    "state": "New South Wales",
    "address": "71 Leacocks Ln, Casula NSW, New South Wales",
    "latitude": -33.9562063,
    "longitude": 150.9060443,
    "postcode": "2170",
    "program_number": "Program-0284",
    "start_time": "2016-02-18T03:00:00.000Z",
    "event_type": "Parent Forum",
    "year": "",
    "num_of_events_cohort": "",
    "students_attended": 200,
    "students_surveyed": "",
    "help_seeking": "",
    "engagement": ""
  },
  {
    "name": "SCEGGS Darlinghurst",
    "street": "215 Forbes Street Darlinghurst",
    "city": "Sydney",
    "state": "New South Wales",
    "address": "215 Forbes Street Darlinghurst, New South Wales",
    "latitude": -33.8759627,
    "longitude": 151.2184486,
    "postcode": "2010",
    "program_number": "Program-0073",
    "start_time": "2015-08-26T18:00:00.000Z",
    "event_type": "Standard",
    "year": "9",
    "num_of_events_cohort": 1,
    "students_attended": 105,
    "students_surveyed": 105,
    "help_seeking": 71,
    "engagement": 86
  },
  {
    "name": "Sydney Secondary College Balmain",
    "street": "23-33 Terry Street Rozelle NSW",
    "city": "SYDNEY",
    "state": "New South Wales",
    "address": "23-33 Terry Street Rozelle NSW, New South Wales",
    "latitude": -33.8584467,
    "longitude": 151.1700447,
    "postcode": "",
    "program_number": "Program-0075",
    "start_time": "2015-08-05T16:00:00.000Z",
    "event_type": "Standard",
    "year": "9",
    "num_of_events_cohort": 1,
    "students_attended": 160,
    "students_surveyed": 128,
    "help_seeking": 59,
    "engagement": 83
  },
  {
    "name": "Willoughby Girls High School",
    "street": "Mowbray Rd, Willoughby",
    "city": "",
    "state": "New South Wales",
    "address": "Mowbray Rd, Willoughby, New South Wales",
    "latitude": -33.8033728,
    "longitude": 151.1986266,
    "postcode": "2068",
    "program_number": "Program-0789",
    "start_time": "2018-02-28T21:40:00.000Z",
    "event_type": "Standard",
    "year": "11",
    "num_of_events_cohort": 1,
    "students_attended": 180,
    "students_surveyed": 166,
    "help_seeking": 72,
    "engagement": 87
  },
  {
    "name": "Headspace - Wagga Wagga",
    "street": "PO Box 5693",
    "city": "Wagga Wagga",
    "state": "New South Wales",
    "address": "PO Box 5693, New South Wales",
    "latitude": -33.7649208,
    "longitude": 151.2625804,
    "postcode": "2650",
    "program_number": "Program-0220",
    "start_time": "2014-06-04T16:00:00.000Z",
    "event_type": "Full Day",
    "year": "9; 10; 11; 12",
    "num_of_events_cohort": 1,
    "students_attended": 150,
    "students_surveyed": "",
    "help_seeking": 83,
    "engagement": 80
  },
  {
    "name": "Nagle College Blacktown",
    "street": "58A Orwell St, Blacktown NSW",
    "city": "SYDNEY",
    "state": "New South Wales",
    "address": "58A Orwell St, Blacktown NSW, New South Wales",
    "latitude": -33.7904397,
    "longitude": 150.9014835,
    "postcode": "2148",
    "program_number": "Program-0726",
    "start_time": "2017-10-11T18:20:00.000Z",
    "event_type": "Half day",
    "year": "10",
    "num_of_events_cohort": 1,
    "students_attended": 150,
    "students_surveyed": 116,
    "help_seeking": 78,
    "engagement": 85
  },
  {
    "name": "Moss Vale High School",
    "street": "21 Narellan Rd",
    "city": "Moss Vale",
    "state": "New South Wales",
    "address": "21 Narellan Rd, New South Wales",
    "latitude": -34.5515312,
    "longitude": 150.3852822,
    "postcode": "2577",
    "program_number": "Program-0605",
    "start_time": "2017-08-24T16:30:00.000Z",
    "event_type": "Standard",
    "year": "10",
    "num_of_events_cohort": 1,
    "students_attended": 115,
    "students_surveyed": 99,
    "help_seeking": 42,
    "engagement": 69
  },
  {
    "name": "St Patrick's College Sutherland",
    "street": "551 President Avenue, Sutherland NSW",
    "city": "SYDNEY",
    "state": "New South Wales",
    "address": "551 President Avenue, Sutherland NSW, New South Wales",
    "latitude": -34.0332884,
    "longitude": 151.0611434,
    "postcode": "2232",
    "program_number": "Program-0065",
    "start_time": "2015-08-21T05:25:00.000Z",
    "event_type": "Standard",
    "year": "10",
    "num_of_events_cohort": 1,
    "students_attended": 180,
    "students_surveyed": 104,
    "help_seeking": 65,
    "engagement": 72
  },
  {
    "name": "St Aloysius College",
    "street": "47 Upper Pitt Street",
    "city": "Kirribilli",
    "state": "New South Wales",
    "address": "47 Upper Pitt Street, New South Wales",
    "latitude": -33.8487081,
    "longitude": 151.2141146,
    "postcode": "2061",
    "program_number": "Program-0285",
    "start_time": "2016-08-10T18:00:00.000Z",
    "event_type": "Look Out For Your Mates",
    "year": "11",
    "num_of_events_cohort": 2,
    "students_attended": 150,
    "students_surveyed": 41,
    "help_seeking": 68,
    "engagement": 80
  },
  {
    "name": "Killarney Heights High School",
    "street": "Starkey Street, Killarney Heights NSW",
    "city": "SYDNEY",
    "state": "New South Wales",
    "address": "Starkey Street, Killarney Heights NSW, New South Wales",
    "latitude": -33.7721769,
    "longitude": 151.2171901,
    "postcode": "2087",
    "program_number": "Program-0379",
    "start_time": "2012-09-16T16:00:00.000Z",
    "event_type": "Standard",
    "year": "10",
    "num_of_events_cohort": 1,
    "students_attended": 240,
    "students_surveyed": "",
    "help_seeking": "",
    "engagement": ""
  },
  {
    "name": "Marist College Eastwood",
    "street": "44 Hillview Rd, Eastwood NSW",
    "city": "SYDNEY",
    "state": "New South Wales",
    "address": "44 Hillview Rd, Eastwood NSW, New South Wales",
    "latitude": -33.7894417,
    "longitude": 151.0772,
    "postcode": "2122",
    "program_number": "Program-0431",
    "start_time": "2016-11-30T17:00:00.000Z",
    "event_type": "Standard",
    "year": "9; 10",
    "num_of_events_cohort": 1,
    "students_attended": 300,
    "students_surveyed": 211,
    "help_seeking": 74,
    "engagement": 69
  },
  {
    "name": "Kinross Wolaroi School",
    "street": "59-67 Bathurst Rd",
    "city": "Orange",
    "state": "New South Wales",
    "address": "59-67 Bathurst Rd, New South Wales",
    "latitude": -33.2906949,
    "longitude": 149.1129497,
    "postcode": "2800",
    "program_number": "Program-0695",
    "start_time": "2017-08-14T15:45:00.000Z",
    "event_type": "Standard",
    "year": "11",
    "num_of_events_cohort": 1,
    "students_attended": 132,
    "students_surveyed": 102,
    "help_seeking": 72,
    "engagement": 88
  },
  {
    "name": "Epping Boys High School",
    "street": "Epping Boys High School, 213 Vimiera Road, Marsfield NSW",
    "city": "SYDNEY",
    "state": "New South Wales",
    "address": "Epping Boys High School, 213 Vimiera Road, Marsfield NSW, New South Wales",
    "latitude": -33.770461,
    "longitude": 151.098436,
    "postcode": "2122",
    "program_number": "Program-0748",
    "start_time": "2017-11-20T22:00:00.000Z",
    "event_type": "Standard",
    "year": "10",
    "num_of_events_cohort": 1,
    "students_attended": 150,
    "students_surveyed": 118,
    "help_seeking": 64,
    "engagement": 75
  },
  {
    "name": "Santa Sabina College",
    "street": "90 The Boulevarde, Strathfield NSW",
    "city": "SYDNEY",
    "state": "New South Wales",
    "address": "90 The Boulevarde, Strathfield NSW, New South Wales",
    "latitude": -33.8768236,
    "longitude": 151.0935463,
    "postcode": "2135",
    "program_number": "Program-0298",
    "start_time": "2016-05-12T18:55:00.000Z",
    "event_type": "Standard",
    "year": "10",
    "num_of_events_cohort": 1,
    "students_attended": 120,
    "students_surveyed": 107,
    "help_seeking": 76,
    "engagement": 96
  },
  {
    "name": "Ryde Secondary College",
    "street": "5 Malvina Street, Ryde NSW",
    "city": "SYDNEY",
    "state": "New South Wales",
    "address": "5 Malvina Street, Ryde NSW, New South Wales",
    "latitude": -33.8134209,
    "longitude": 151.11916,
    "postcode": "2112",
    "program_number": "Program-0149",
    "start_time": "2016-10-12T19:20:00.000Z",
    "event_type": "Standard",
    "year": "9",
    "num_of_events_cohort": 1,
    "students_attended": 100,
    "students_surveyed": 137,
    "help_seeking": 68,
    "engagement": 41
  },
  {
    "name": "Mosman High School",
    "street": "769 Military Road, Mosman NSW",
    "city": "SYDNEY",
    "state": "New South Wales",
    "address": "769 Military Road, Mosman NSW, New South Wales",
    "latitude": -33.8296636,
    "longitude": 151.2435738,
    "postcode": "2088",
    "program_number": "Program-0803",
    "start_time": "2018-02-27T19:35:00.000Z",
    "event_type": "Standard",
    "year": "11",
    "num_of_events_cohort": 1,
    "students_attended": 220,
    "students_surveyed": 163,
    "help_seeking": 66,
    "engagement": 79
  },
  {
    "name": "Pymble Ladies College",
    "street": "Avon Rd, Pymble",
    "city": "SYDNEY",
    "state": "New South Wales",
    "address": "Avon Rd, Pymble, New South Wales",
    "latitude": -33.7448518,
    "longitude": 151.1361167,
    "postcode": "2073",
    "program_number": "Program-0293",
    "start_time": "2016-05-19T20:35:00.000Z",
    "event_type": "Standard",
    "year": "9",
    "num_of_events_cohort": 1,
    "students_attended": 285,
    "students_surveyed": 241,
    "help_seeking": 74,
    "engagement": 87
  },
  {
    "name": "St Philip's Christian College Cessnock",
    "street": "10 Lomas Lane",
    "city": "Nulkaba",
    "state": "New South Wales",
    "address": "10 Lomas Lane, New South Wales",
    "latitude": -32.7958258,
    "longitude": 151.3509787,
    "postcode": "2325",
    "program_number": "Program-0349",
    "start_time": "2016-06-03T18:30:00.000Z",
    "event_type": "Standard",
    "year": "9",
    "num_of_events_cohort": 1,
    "students_attended": 71,
    "students_surveyed": 55,
    "help_seeking": 71,
    "engagement": 76
  },
  {
    "name": "Lakes Grammar",
    "street": "Sparks Road & Albert Warner Drive",
    "city": "Warnervale",
    "state": "New South Wales",
    "address": "Sparks Road & Albert Warner Drive, New South Wales",
    "latitude": -33.2419145,
    "longitude": 151.4453674,
    "postcode": "2259",
    "program_number": "Program-0346",
    "start_time": "2016-05-18T20:30:00.000Z",
    "event_type": "Standard",
    "year": "9; 10",
    "num_of_events_cohort": 1,
    "students_attended": 110,
    "students_surveyed": 86,
    "help_seeking": 83,
    "engagement": 93
  },
  {
    "name": "Cobar High School",
    "street": "Wetherell Crescent",
    "city": "Cobar",
    "state": "New South Wales",
    "address": "Wetherell Crescent, New South Wales",
    "latitude": -31.5015831,
    "longitude": 145.82621,
    "postcode": "2835",
    "program_number": "Program-0351",
    "start_time": "2016-11-23T20:55:00.000Z",
    "event_type": "Look Out For Your Mates",
    "year": "10",
    "num_of_events_cohort": 2,
    "students_attended": 56,
    "students_surveyed": 47,
    "help_seeking": 57,
    "engagement": 54
  },
  {
    "name": "Loreto Kirribilli",
    "street": "85 Carabella St, Kirribilli",
    "city": "SYDNEY",
    "state": "New South Wales",
    "address": "85 Carabella St, Kirribilli, New South Wales",
    "latitude": -33.8472294,
    "longitude": 151.2166132,
    "postcode": "2061",
    "program_number": "Program-0701",
    "start_time": "2017-09-06T18:45:00.000Z",
    "event_type": "Standard",
    "year": "9; 10",
    "num_of_events_cohort": 1,
    "students_attended": 300,
    "students_surveyed": 255,
    "help_seeking": 82,
    "engagement": 97
  },
  {
    "name": "PLC Armidale",
    "street": "corner of and Crest Rd & Duval St",
    "city": "Armidale",
    "state": "New South Wales",
    "address": "corner of and Crest Rd & Duval St, New South Wales",
    "latitude": -30.4949831,
    "longitude": 151.6661798,
    "postcode": "2350",
    "program_number": "Program-0059",
    "start_time": "2015-07-21T16:00:00.000Z",
    "event_type": "Standard",
    "year": "9; 10",
    "num_of_events_cohort": 1,
    "students_attended": 60,
    "students_surveyed": 62,
    "help_seeking": 77,
    "engagement": 93
  },
  {
    "name": "Muswellbrook High School",
    "street": "King St",
    "city": "Muswellbrook",
    "state": "New South Wales",
    "address": "King St, New South Wales",
    "latitude": -33.868652,
    "longitude": 151.2063349,
    "postcode": "2333",
    "program_number": "Program-0747",
    "start_time": "2017-09-04T19:00:00.000Z",
    "event_type": "Standard",
    "year": "12",
    "num_of_events_cohort": 1,
    "students_attended": 70,
    "students_surveyed": 46,
    "help_seeking": 72,
    "engagement": 74
  },
  {
    "name": "Merriwa Central School",
    "street": "Bow St",
    "city": "Merriwa",
    "state": "New South Wales",
    "address": "Bow St, New South Wales",
    "latitude": -32.1412316,
    "longitude": 150.3529134,
    "postcode": "2329",
    "program_number": "Program-0406",
    "start_time": "2016-08-31T21:00:00.000Z",
    "event_type": "Standard",
    "year": "11; 12",
    "num_of_events_cohort": 1,
    "students_attended": 44,
    "students_surveyed": 13,
    "help_seeking": 92,
    "engagement": 78
  },
  {
    "name": "Farrer Agricultural High School",
    "street": "585 Calala Lane",
    "city": "Tamworth",
    "state": "New South Wales",
    "address": "585 Calala Lane, New South Wales",
    "latitude": -31.140674,
    "longitude": 150.9810194,
    "postcode": "2340",
    "program_number": "Program-0279",
    "start_time": "2016-03-24T16:00:00.000Z",
    "event_type": "Parent Forum",
    "year": "",
    "num_of_events_cohort": "",
    "students_attended": 20,
    "students_surveyed": "",
    "help_seeking": "",
    "engagement": ""
  },
  {
    "name": "Calrossy Anglican School",
    "street": "140 Brisbane St",
    "city": "Tamworth",
    "state": "New South Wales",
    "address": "140 Brisbane St, New South Wales",
    "latitude": -33.7670704,
    "longitude": 150.7848352,
    "postcode": "2340",
    "program_number": "Program-0362",
    "start_time": "2016-06-24T16:00:00.000Z",
    "event_type": "Teacher PD",
    "year": "",
    "num_of_events_cohort": 1,
    "students_attended": 20,
    "students_surveyed": "",
    "help_seeking": "",
    "engagement": ""
  },
  {
    "name": "St Joseph's High School, Aberdeen",
    "street": "Segenhoe St",
    "city": "Aberdeen",
    "state": "New South Wales",
    "address": "Segenhoe St, New South Wales",
    "latitude": -33.94182,
    "longitude": 151.1482033,
    "postcode": "2336",
    "program_number": "Program-0666",
    "start_time": "2017-07-27T16:30:00.000Z",
    "event_type": "Standard",
    "year": "12",
    "num_of_events_cohort": 1,
    "students_attended": 78,
    "students_surveyed": 67,
    "help_seeking": 66,
    "engagement": 94
  },
  {
    "name": "Mary Mackillop College",
    "street": "5 Carnarvon St, Wakeley",
    "city": "",
    "state": "New South Wales",
    "address": "5 Carnarvon St, Wakeley, New South Wales",
    "latitude": -33.8670666,
    "longitude": 150.912214,
    "postcode": "2176",
    "program_number": "Program-0191",
    "start_time": "2014-04-11T17:05:00.000Z",
    "event_type": "Standard",
    "year": "10; 11; 12",
    "num_of_events_cohort": 1,
    "students_attended": 450,
    "students_surveyed": 360,
    "help_seeking": 61,
    "engagement": 84
  },
  {
    "name": "Scone Grammar School",
    "street": "60 Kingdon ST",
    "city": "Scone",
    "state": "New South Wales",
    "address": "60 Kingdon ST, New South Wales",
    "latitude": -32.0516547,
    "longitude": 150.8619293,
    "postcode": "2337",
    "program_number": "Program-0404",
    "start_time": "2016-08-29T20:15:00.000Z",
    "event_type": "Standard",
    "year": "11; 12",
    "num_of_events_cohort": 1,
    "students_attended": 71,
    "students_surveyed": 56,
    "help_seeking": 70,
    "engagement": 89
  },
  {
    "name": "Newcastle Grammar School",
    "street": "Cnr Church & Newcomen St",
    "city": "Newcastle",
    "state": "New South Wales",
    "address": "Cnr Church & Newcomen St, New South Wales",
    "latitude": -32.9296363,
    "longitude": 151.7812089,
    "postcode": "2300",
    "program_number": "Program-0520",
    "start_time": "2017-04-05T01:00:00.000Z",
    "event_type": "Parent Forum",
    "year": "",
    "num_of_events_cohort": 1,
    "students_attended": 20,
    "students_surveyed": "",
    "help_seeking": "",
    "engagement": ""
  },
  {
    "name": "St Pius X High School, Newcastle",
    "street": "Park Avenue, Adamstown",
    "city": "Newcastle",
    "state": "New South Wales",
    "address": "Park Avenue, Adamstown, New South Wales",
    "latitude": -32.9371319,
    "longitude": 151.7163306,
    "postcode": "2289",
    "program_number": "Program-0364",
    "start_time": "2016-08-11T19:14:00.000Z",
    "event_type": "Standard",
    "year": "10",
    "num_of_events_cohort": 1,
    "students_attended": 250,
    "students_surveyed": 145,
    "help_seeking": 73,
    "engagement": 82
  },
  {
    "name": "Model Farms High School",
    "street": "Gooden Dr",
    "city": "Baulkham Hills",
    "state": "New South Wales",
    "address": "Gooden Dr, New South Wales",
    "latitude": -33.7669777,
    "longitude": 150.9740035,
    "postcode": "2153",
    "program_number": "Program-0282",
    "start_time": "2016-03-14T18:30:00.000Z",
    "event_type": "Standard",
    "year": "10",
    "num_of_events_cohort": 1,
    "students_attended": 170,
    "students_surveyed": 150,
    "help_seeking": 69,
    "engagement": 73
  },
  {
    "name": "Ravenswood",
    "street": "Henry St, Gordon NSW 2072",
    "city": "Sydney",
    "state": "New South Wales",
    "address": "Henry St, Gordon NSW 2072, New South Wales",
    "latitude": -33.7581868,
    "longitude": 151.1553755,
    "postcode": "2072",
    "program_number": "Program-0715",
    "start_time": "2017-08-10T15:30:00.000Z",
    "event_type": "Standard",
    "year": "9",
    "num_of_events_cohort": 1,
    "students_attended": 135,
    "students_surveyed": 116,
    "help_seeking": 81,
    "engagement": 97
  },
  {
    "name": "St Ursula's College Kingsgrove",
    "street": "69 Caroline Street, Kingsgrove NSW",
    "city": "SYDNEY",
    "state": "New South Wales",
    "address": "69 Caroline Street, Kingsgrove NSW, New South Wales",
    "latitude": -33.9410907,
    "longitude": 151.1033755,
    "postcode": "2208",
    "program_number": "Program-0185",
    "start_time": "2016-03-31T19:20:00.000Z",
    "event_type": "Standard",
    "year": "9",
    "num_of_events_cohort": 1,
    "students_attended": 198,
    "students_surveyed": 134,
    "help_seeking": 84,
    "engagement": 98
  },
  {
    "name": "St Peter's Catholic College",
    "street": "84 Gavenlock Rd, Mardi NSW",
    "city": "SYDNEY",
    "state": "New South Wales",
    "address": "84 Gavenlock Rd, Mardi NSW, New South Wales",
    "latitude": -33.3016296,
    "longitude": 151.4129939,
    "postcode": "2259",
    "program_number": "Program-0094",
    "start_time": "2015-09-02T20:30:00.000Z",
    "event_type": "Standard",
    "year": "9",
    "num_of_events_cohort": 1,
    "students_attended": 170,
    "students_surveyed": 148,
    "help_seeking": 60,
    "engagement": 67
  },
  {
    "name": "Canobolas Rural Technology High School - Orange",
    "street": "142 Icely Road",
    "city": "Orange",
    "state": "New South Wales",
    "address": "142 Icely Road, New South Wales",
    "latitude": -33.2905562,
    "longitude": 149.1217617,
    "postcode": "2800",
    "program_number": "Program-0741",
    "start_time": "2017-10-17T19:00:00.000Z",
    "event_type": "Standard",
    "year": "9",
    "num_of_events_cohort": 1,
    "students_attended": 97,
    "students_surveyed": 35,
    "help_seeking": 68,
    "engagement": 71
  },
  {
    "name": "McAuley Catholic College, Grafton",
    "street": "LOT 21 Pacific Hwy, Clarenza NSW 2460",
    "city": "Clarenza",
    "state": "New South Wales",
    "address": "LOT 21 Pacific Hwy, Clarenza NSW 2460, New South Wales",
    "latitude": -29.7062414999999,
    "longitude": 152.9564601,
    "postcode": "2460",
    "program_number": "Program-0735",
    "start_time": "2017-10-31T20:30:00.000Z",
    "event_type": "Standard",
    "year": "9",
    "num_of_events_cohort": 1,
    "students_attended": 92,
    "students_surveyed": 64,
    "help_seeking": 60,
    "engagement": 61
  },
  {
    "name": "Kildare Catholic College",
    "street": "Coleman Street, Wagga Wagga NSW",
    "city": "Wagga Wagga",
    "state": "New South Wales",
    "address": "Coleman Street, Wagga Wagga NSW, New South Wales",
    "latitude": -35.1230557,
    "longitude": 147.3637199,
    "postcode": "2650",
    "program_number": "Program-0209",
    "start_time": "2014-10-21T18:35:00.000Z",
    "event_type": "Standard",
    "year": "10; 11",
    "num_of_events_cohort": 1,
    "students_attended": 300,
    "students_surveyed": 125,
    "help_seeking": 80,
    "engagement": 97
  },
  {
    "name": "Duval High School",
    "street": "Crest Road",
    "city": "Armidale",
    "state": "New South Wales",
    "address": "Crest Road, New South Wales",
    "latitude": -35.3463596,
    "longitude": 149.2196895,
    "postcode": "2350",
    "program_number": "Program-0638",
    "start_time": "2017-06-01T17:05:00.000Z",
    "event_type": "Standard",
    "year": "9",
    "num_of_events_cohort": 1,
    "students_attended": 112,
    "students_surveyed": 91,
    "help_seeking": 70,
    "engagement": 68
  },
  {
    "name": "St Philip's Christian College Newcastle",
    "street": "PO Box 87",
    "city": "Waratah",
    "state": "New South Wales",
    "address": "PO Box 87, New South Wales",
    "latitude": -33.9566162,
    "longitude": 150.8895147,
    "postcode": "2298",
    "program_number": "Program-0145",
    "start_time": "2015-11-11T17:00:00.000Z",
    "event_type": "Standard",
    "year": "9",
    "num_of_events_cohort": 1,
    "students_attended": 120,
    "students_surveyed": 104,
    "help_seeking": 66,
    "engagement": 90
  },
  {
    "name": "Peel High School",
    "street": "88 Gunnedah Road",
    "city": "Tamworth",
    "state": "New South Wales",
    "address": "88 Gunnedah Road, New South Wales",
    "latitude": -31.0987465999999,
    "longitude": 150.8976943,
    "postcode": "2340",
    "program_number": "Program-0295",
    "start_time": "2016-06-22T17:30:00.000Z",
    "event_type": "Look Out For Your Mates",
    "year": "11; 12",
    "num_of_events_cohort": 2,
    "students_attended": 100,
    "students_surveyed": 56,
    "help_seeking": 68,
    "engagement": 82
  },
  {
    "name": "Scone High School",
    "street": "Gundy Rd",
    "city": "Scone",
    "state": "New South Wales",
    "address": "Gundy Rd, New South Wales",
    "latitude": -32.0459562,
    "longitude": 150.932357,
    "postcode": "2337",
    "program_number": "Program-0543",
    "start_time": "2017-03-21T18:30:00.000Z",
    "event_type": "Standard",
    "year": "11",
    "num_of_events_cohort": 1,
    "students_attended": 55,
    "students_surveyed": 51,
    "help_seeking": 53,
    "engagement": 77
  },
  {
    "name": "St Mary's Cathedral College",
    "street": "2 St Mary's Road Sydney 2000, Sydney NSW",
    "city": "SYDNEY",
    "state": "New South Wales",
    "address": "2 St Mary's Road Sydney 2000, Sydney NSW, New South Wales",
    "latitude": -33.8713899,
    "longitude": 151.2136666,
    "postcode": "2000",
    "program_number": "Program-0400",
    "start_time": "2016-11-16T17:00:00.000Z",
    "event_type": "Standard",
    "year": "11",
    "num_of_events_cohort": 1,
    "students_attended": 102,
    "students_surveyed": 91,
    "help_seeking": 89,
    "engagement": 97
  },
  {
    "name": "Orange High School",
    "street": "Coronation Drive",
    "city": "",
    "state": "New South Wales",
    "address": "Coronation Drive, New South Wales",
    "latitude": -33.2807723,
    "longitude": 149.077458,
    "postcode": "2800",
    "program_number": "Program-0687",
    "start_time": "2017-10-17T20:50:00.000Z",
    "event_type": "Standard",
    "year": "9",
    "num_of_events_cohort": 1,
    "students_attended": 200,
    "students_surveyed": 158,
    "help_seeking": 70,
    "engagement": 91
  },
  {
    "name": "Sydney Grammar School",
    "street": "College St, Darlinghurst",
    "city": "",
    "state": "New South Wales",
    "address": "College St, Darlinghurst, New South Wales",
    "latitude": -33.8753015,
    "longitude": 151.212395,
    "postcode": "2010",
    "program_number": "Program-0204",
    "start_time": "2014-11-25T16:30:00.000Z",
    "event_type": "Full Day",
    "year": "10",
    "num_of_events_cohort": 1,
    "students_attended": 180,
    "students_surveyed": 173,
    "help_seeking": 73,
    "engagement": 85
  },
  {
    "name": "Frensham",
    "street": "Range Rd, Mittagong NSW 2575",
    "city": "Mittagong",
    "state": "New South Wales",
    "address": "Range Rd, Mittagong NSW 2575, New South Wales",
    "latitude": -34.4765931,
    "longitude": 150.4755549,
    "postcode": "2575",
    "program_number": "Program-0584",
    "start_time": "2017-08-21T18:00:00.000Z",
    "event_type": "Standard",
    "year": "9",
    "num_of_events_cohort": 1,
    "students_attended": 60,
    "students_surveyed": 54,
    "help_seeking": 81,
    "engagement": 100
  },
  {
    "name": "Barker College",
    "street": "91 Pacific Hwy, Hornsby NSW",
    "city": "SYDNEY",
    "state": "New South Wales",
    "address": "91 Pacific Hwy, Hornsby NSW, New South Wales",
    "latitude": -33.7124593,
    "longitude": 151.0997267,
    "postcode": "",
    "program_number": "Program-0292",
    "start_time": "2016-02-24T20:00:00.000Z",
    "event_type": "",
    "year": "11",
    "num_of_events_cohort": 2,
    "students_attended": 170,
    "students_surveyed": 0,
    "help_seeking": "",
    "engagement": ""
  },
  {
    "name": "Belmont High School, NSW",
    "street": "424 Pacific Highway",
    "city": "Belmont",
    "state": "New South Wales",
    "address": "424 Pacific Highway, New South Wales",
    "latitude": -32.8920992,
    "longitude": 151.7292965,
    "postcode": "2280",
    "program_number": "Program-0357",
    "start_time": "2016-06-07T20:10:00.000Z",
    "event_type": "Standard",
    "year": "10",
    "num_of_events_cohort": 1,
    "students_attended": 178,
    "students_surveyed": 107,
    "help_seeking": 76,
    "engagement": 90
  },
  {
    "name": "Belmont Christian College, Newcastle",
    "street": "John Fisher Road Belmont North",
    "city": "Newcastle",
    "state": "New South Wales",
    "address": "John Fisher Road Belmont North, New South Wales",
    "latitude": -33.0238028,
    "longitude": 151.6693221,
    "postcode": "2280",
    "program_number": "Program-0573",
    "start_time": "2017-07-26T18:15:00.000Z",
    "event_type": "Standard",
    "year": "9",
    "num_of_events_cohort": 1,
    "students_attended": 80,
    "students_surveyed": 54,
    "help_seeking": 67,
    "engagement": 70
  },
  {
    "name": "De La Salle Catholic College Cronulla",
    "street": "2 Cross Road, Cronulla",
    "city": "",
    "state": "New South Wales",
    "address": "2 Cross Road, Cronulla, New South Wales",
    "latitude": -34.055829,
    "longitude": 151.1421567,
    "postcode": "2230",
    "program_number": "Program-0196",
    "start_time": "2014-06-18T18:10:00.000Z",
    "event_type": "Standard",
    "year": "11",
    "num_of_events_cohort": 1,
    "students_attended": 200,
    "students_surveyed": 160,
    "help_seeking": 78,
    "engagement": 91
  },
  {
    "name": "St John Bosco College",
    "street": "Banksia Ave, Engadine",
    "city": "",
    "state": "New South Wales",
    "address": "Banksia Ave, Engadine, New South Wales",
    "latitude": -34.0629097,
    "longitude": 151.0077399,
    "postcode": "2233",
    "program_number": "Program-0288",
    "start_time": "2016-03-10T20:00:00.000Z",
    "event_type": "Standard",
    "year": "11",
    "num_of_events_cohort": 1,
    "students_attended": 140,
    "students_surveyed": 109,
    "help_seeking": 83,
    "engagement": 94
  },
  {
    "name": "St Luke's Grammar School",
    "street": "210 Headland Road, Dee Why NSW",
    "city": "SYDNEY",
    "state": "New South Wales",
    "address": "210 Headland Road, Dee Why NSW, New South Wales",
    "latitude": -33.7593938,
    "longitude": 151.2835706,
    "postcode": "2099",
    "program_number": "Program-0547",
    "start_time": "2017-03-09T21:40:00.000Z",
    "event_type": "Standard",
    "year": "10",
    "num_of_events_cohort": 1,
    "students_attended": 150,
    "students_surveyed": 90,
    "help_seeking": 73,
    "engagement": 97
  },
  {
    "name": "St Mary's College, Gunnedah",
    "street": "151-153 Bloomfield St",
    "city": "Gunnedah",
    "state": "New South Wales",
    "address": "151-153 Bloomfield St, New South Wales",
    "latitude": -30.9805057,
    "longitude": 150.2607847,
    "postcode": "2380",
    "program_number": "Program-0348",
    "start_time": "2016-05-31T19:00:00.000Z",
    "event_type": "Standard",
    "year": "9",
    "num_of_events_cohort": 1,
    "students_attended": 87,
    "students_surveyed": 68,
    "help_seeking": 80,
    "engagement": 88
  },
  {
    "name": "Hornsby Girls High School",
    "street": "Edgeworth David Avenue, Hornsby",
    "city": "SYDNEY",
    "state": "New South Wales",
    "address": "Edgeworth David Avenue, Hornsby, New South Wales",
    "latitude": -33.7065573,
    "longitude": 151.107601,
    "postcode": "2077",
    "program_number": "Program-0830",
    "start_time": "2018-02-07T18:20:00.000Z",
    "event_type": "Standard",
    "year": "9",
    "num_of_events_cohort": 1,
    "students_attended": 130,
    "students_surveyed": 101,
    "help_seeking": 51,
    "engagement": 91
  },
  {
    "name": "Roseville College",
    "street": "27 Bancroft Avenue, Roseville NSW",
    "city": "SYDNEY",
    "state": "New South Wales",
    "address": "27 Bancroft Avenue, Roseville NSW, New South Wales",
    "latitude": -33.7844554,
    "longitude": 151.1826724,
    "postcode": "2069",
    "program_number": "Program-0829",
    "start_time": "2018-03-07T21:30:00.000Z",
    "event_type": "Standard",
    "year": "9",
    "num_of_events_cohort": 1,
    "students_attended": 120,
    "students_surveyed": "",
    "help_seeking": "",
    "engagement": ""
  },
  {
    "name": "St Paul's Catholic College",
    "street": "198 Old Prospect Road, Greystanes NSW",
    "city": "SYDNEY",
    "state": "New South Wales",
    "address": "198 Old Prospect Road, Greystanes NSW, New South Wales",
    "latitude": -33.8190788,
    "longitude": 150.952686,
    "postcode": "2145",
    "program_number": "Program-0681",
    "start_time": "2017-08-15T16:00:00.000Z",
    "event_type": "Standard",
    "year": "12",
    "num_of_events_cohort": 1,
    "students_attended": 120,
    "students_surveyed": 77,
    "help_seeking": 66,
    "engagement": 83
  },
  {
    "name": "Ascham School",
    "street": "188 New South Head Rd, Edgecliff",
    "city": "SYDNEY",
    "state": "New South Wales",
    "address": "188 New South Head Rd, Edgecliff, New South Wales",
    "latitude": -33.8771454,
    "longitude": 151.2362006,
    "postcode": "2027",
    "program_number": "Program-0103",
    "start_time": "2015-11-20T17:00:00.000Z",
    "event_type": "Full Day",
    "year": "10",
    "num_of_events_cohort": 1,
    "students_attended": 90,
    "students_surveyed": 67,
    "help_seeking": 91,
    "engagement": 96
  },
  {
    "name": "Mater Dei Catholic College",
    "street": "Plunkett Drive, Kooringal NSW",
    "city": "Wagga Wagga",
    "state": "New South Wales",
    "address": "Plunkett Drive, Kooringal NSW, New South Wales",
    "latitude": -35.1771653,
    "longitude": 147.3662557,
    "postcode": "2650",
    "program_number": "Program-0688",
    "start_time": "2017-10-18T16:00:00.000Z",
    "event_type": "Standard",
    "year": "10",
    "num_of_events_cohort": 0,
    "students_attended": 140,
    "students_surveyed": 92,
    "help_seeking": 71,
    "engagement": 94
  },
  {
    "name": "Brigidine College Randwick",
    "street": "6 Aeolia Street, Randwick NSW",
    "city": "SYDNEY",
    "state": "New South Wales",
    "address": "6 Aeolia Street, Randwick NSW, New South Wales",
    "latitude": -33.9194147,
    "longitude": 151.2430515,
    "postcode": "2031",
    "program_number": "Program-0814",
    "start_time": "2018-02-01T20:00:00.000Z",
    "event_type": "Stressed Out?",
    "year": "12",
    "num_of_events_cohort": 2,
    "students_attended": 140,
    "students_surveyed": 126,
    "help_seeking": 81,
    "engagement": 93
  },
  {
    "name": "North Steyne Surf Lifesavers",
    "street": "93-95 N Steyne",
    "city": "Manly",
    "state": "New South Wales",
    "address": "93-95 N Steyne, New South Wales",
    "latitude": -33.7911,
    "longitude": 151.2867293,
    "postcode": "2095",
    "program_number": "Program-0892",
    "start_time": "2018-01-13T17:00:00.000Z",
    "event_type": "Half day",
    "year": "8; 9; 10; 11; 12",
    "num_of_events_cohort": 1,
    "students_attended": 16,
    "students_surveyed": 16,
    "help_seeking": 88,
    "engagement": 94
  },
  {
    "name": "De La Salle Catholic College Revesby",
    "street": "9 Ferndale Rd, Revesby NSW",
    "city": "SYDNEY",
    "state": "New South Wales",
    "address": "9 Ferndale Rd, Revesby NSW, New South Wales",
    "latitude": -33.962855,
    "longitude": 151.0147277,
    "postcode": "2212",
    "program_number": "Program-0208",
    "start_time": "2014-12-03T19:30:00.000Z",
    "event_type": "Standard",
    "year": "10",
    "num_of_events_cohort": 1,
    "students_attended": 90,
    "students_surveyed": 78,
    "help_seeking": 78,
    "engagement": 71
  },
  {
    "name": "St Vincent's College",
    "street": "1 Rockwall Crescent, Potts Point NSW",
    "city": "SYDNEY",
    "state": "New South Wales",
    "address": "1 Rockwall Crescent, Potts Point NSW, New South Wales",
    "latitude": -33.8698108,
    "longitude": 151.2240815,
    "postcode": "2011",
    "program_number": "Program-0491",
    "start_time": "2017-10-19T20:30:00.000Z",
    "event_type": "Standard",
    "year": "10",
    "num_of_events_cohort": 1,
    "students_attended": 150,
    "students_surveyed": 99,
    "help_seeking": 75,
    "engagement": 92
  },
  {
    "name": "Glenmore Park High School",
    "street": "Glenmore Pkwy, Glenmore Park",
    "city": "SYDNEY",
    "state": "New South Wales",
    "address": "Glenmore Pkwy, Glenmore Park, New South Wales",
    "latitude": -33.7865355,
    "longitude": 150.6699077,
    "postcode": "2745",
    "program_number": "Program-0088",
    "start_time": "2015-10-09T18:00:00.000Z",
    "event_type": "Standard",
    "year": "10",
    "num_of_events_cohort": 1,
    "students_attended": 160,
    "students_surveyed": 110,
    "help_seeking": 51,
    "engagement": 66
  },
  {
    "name": "Oxley College",
    "street": "11-29 Railway Road, Burradoo",
    "city": "Bowral",
    "state": "New South Wales",
    "address": "11-29 Railway Road, Burradoo, New South Wales",
    "latitude": -34.4988139,
    "longitude": 150.3917088,
    "postcode": "2576",
    "program_number": "Program-0629",
    "start_time": "2017-08-22T20:30:00.000Z",
    "event_type": "Standard",
    "year": "10",
    "num_of_events_cohort": 1,
    "students_attended": 69,
    "students_surveyed": 64,
    "help_seeking": 87,
    "engagement": 94
  },
  {
    "name": "Hunter Valley Grammar School, Maitland",
    "street": "Norfolk Street Ashtonfield",
    "city": "Singleton",
    "state": "New South Wales",
    "address": "Norfolk Street Ashtonfield, New South Wales",
    "latitude": -32.7686999,
    "longitude": 151.5983862,
    "postcode": "2323",
    "program_number": "Program-0551",
    "start_time": "2017-06-19T17:50:00.000Z",
    "event_type": "Standard",
    "year": "10",
    "num_of_events_cohort": 1,
    "students_attended": 112,
    "students_surveyed": 83,
    "help_seeking": 66,
    "engagement": 72
  },
  {
    "name": "Rugby Union Players Association",
    "street": "Level 1/10 Mallet Street",
    "city": "Camperdown",
    "state": "New South Wales",
    "address": "Level 1/10 Mallet Street, New South Wales",
    "latitude": -33.8858618,
    "longitude": 151.1765384,
    "postcode": "2050",
    "program_number": "Program-0082",
    "start_time": "2015-07-02T00:00:00.000Z",
    "event_type": "Standard",
    "year": "10; 11; 12",
    "num_of_events_cohort": 1,
    "students_attended": 270,
    "students_surveyed": 135,
    "help_seeking": 70,
    "engagement": 82
  },
  {
    "name": "Scouts - 1st Blaxland Venturers",
    "street": "Bundilla Scout Camp, 6 Baden Powell Pl",
    "city": "Winston Hills",
    "state": "New South Wales",
    "address": "Bundilla Scout Camp, 6 Baden Powell Pl, New South Wales",
    "latitude": -33.786916,
    "longitude": 150.986287,
    "postcode": "2153",
    "program_number": "Program-0089",
    "start_time": "2015-08-17T22:29:00.000Z",
    "event_type": "Standard",
    "year": "9; 10; 11; 12",
    "num_of_events_cohort": 1,
    "students_attended": 100,
    "students_surveyed": 66,
    "help_seeking": 86,
    "engagement": 92
  },
  {
    "name": "Tamworth High School",
    "street": "Willis Street",
    "city": "Tamworth",
    "state": "New South Wales",
    "address": "Willis Street, New South Wales",
    "latitude": -33.9214562,
    "longitude": 151.231484,
    "postcode": "2340",
    "program_number": "Program-0062",
    "start_time": "2015-07-24T21:00:00.000Z",
    "event_type": "Standard",
    "year": "10",
    "num_of_events_cohort": 1,
    "students_attended": 90,
    "students_surveyed": 89,
    "help_seeking": 39,
    "engagement": 79
  },
  {
    "name": "NEGS Armidale",
    "street": "Uralla Road",
    "city": "Armidale",
    "state": "New South Wales",
    "address": "Uralla Road, New South Wales",
    "latitude": -31.4523266,
    "longitude": 152.8832634,
    "postcode": "2350",
    "program_number": "Program-0063",
    "start_time": "2015-07-21T20:50:00.000Z",
    "event_type": "Standard",
    "year": "10; 11",
    "num_of_events_cohort": 1,
    "students_attended": 60,
    "students_surveyed": 79,
    "help_seeking": 70,
    "engagement": 94
  },
  {
    "name": "Holy Cross College Ryde",
    "street": "517 Victoria Road, Ryde NSW",
    "city": "SYDNEY",
    "state": "New South Wales",
    "address": "517 Victoria Road, Ryde NSW, New South Wales",
    "latitude": -33.8185705,
    "longitude": 151.1195857,
    "postcode": "2112",
    "program_number": "Program-0161",
    "start_time": "2015-12-10T17:00:00.000Z",
    "event_type": "Standard",
    "year": "9",
    "num_of_events_cohort": 1,
    "students_attended": 110,
    "students_surveyed": 50,
    "help_seeking": 54,
    "engagement": 82
  },
  {
    "name": "Bowral High School",
    "street": "Aitken Rd",
    "city": "Bowral",
    "state": "New South Wales",
    "address": "Aitken Rd, New South Wales",
    "latitude": -34.4904861,
    "longitude": 150.4246175,
    "postcode": "2576",
    "program_number": "Program-0661",
    "start_time": "2017-09-01T21:25:00.000Z",
    "event_type": "Standard",
    "year": "9",
    "num_of_events_cohort": 1,
    "students_attended": 156,
    "students_surveyed": 56,
    "help_seeking": 56,
    "engagement": 89
  },
  {
    "name": "Gunnedah High School",
    "street": "Marquis St",
    "city": "Gunnedah",
    "state": "New South Wales",
    "address": "Marquis St, New South Wales",
    "latitude": -30.9789452,
    "longitude": 150.2524687,
    "postcode": "2380",
    "program_number": "Program-0358",
    "start_time": "2016-06-01T16:15:00.000Z",
    "event_type": "Standard",
    "year": "10",
    "num_of_events_cohort": 1,
    "students_attended": 77,
    "students_surveyed": 51,
    "help_seeking": 71,
    "engagement": 80
  },
  {
    "name": "Monte Sant' Angelo Mercy College",
    "street": "128 Miller St, North Sydney",
    "city": "SYDNEY",
    "state": "New South Wales",
    "address": "128 Miller St, North Sydney, New South Wales",
    "latitude": -33.8369712,
    "longitude": 151.2070558,
    "postcode": "2060",
    "program_number": "Program-0302",
    "start_time": "2016-11-17T20:10:00.000Z",
    "event_type": "Standard",
    "year": "9",
    "num_of_events_cohort": 1,
    "students_attended": 200,
    "students_surveyed": 166,
    "help_seeking": 96,
    "engagement": 83
  },
  {
    "name": "Mount View High School",
    "street": "106 Mount View Rd, Cessnock",
    "city": "Cessnock",
    "state": "New South Wales",
    "address": "106 Mount View Rd, Cessnock, New South Wales",
    "latitude": -32.8280185,
    "longitude": 151.333292,
    "postcode": "2325",
    "program_number": "Program-0683",
    "start_time": "2017-06-19T20:45:00.000Z",
    "event_type": "Standard",
    "year": "11",
    "num_of_events_cohort": 1,
    "students_attended": 140,
    "students_surveyed": 90,
    "help_seeking": 61,
    "engagement": 70
  },
  {
    "name": "Chevalier College",
    "street": "11 Charlotte Street, Burradoo",
    "city": "",
    "state": "New South Wales",
    "address": "11 Charlotte Street, Burradoo, New South Wales",
    "latitude": -34.5075233,
    "longitude": 150.4092141,
    "postcode": "2576",
    "program_number": "Program-0662",
    "start_time": "2017-08-23T16:00:00.000Z",
    "event_type": "Standard",
    "year": "10",
    "num_of_events_cohort": 1,
    "students_attended": 200,
    "students_surveyed": 112,
    "help_seeking": 81,
    "engagement": 97
  },
  {
    "name": "Singleton High School",
    "street": "75-81 York St",
    "city": "Singleton",
    "state": "New South Wales",
    "address": "75-81 York St, New South Wales",
    "latitude": -33.8692382,
    "longitude": 151.205827,
    "postcode": "2330",
    "program_number": "Program-0557",
    "start_time": "2017-04-05T21:00:00.000Z",
    "event_type": "Standard",
    "year": "10",
    "num_of_events_cohort": 1,
    "students_attended": 217,
    "students_surveyed": 138,
    "help_seeking": 68,
    "engagement": 77
  },
  {
    "name": "The Riverina Anglican College",
    "street": "Farrer Road, Wagga Wagga",
    "city": "SYDNEY",
    "state": "New South Wales",
    "address": "Farrer Road, Wagga Wagga, New South Wales",
    "latitude": -35.0668626,
    "longitude": 147.3683208,
    "postcode": "2650",
    "program_number": "Program-0211",
    "start_time": "2014-10-22T16:00:00.000Z",
    "event_type": "Standard",
    "year": "9; 10; 11; 12",
    "num_of_events_cohort": 1,
    "students_attended": 400,
    "students_surveyed": 245,
    "help_seeking": 79,
    "engagement": 93
  },
  {
    "name": "Hurlstone Agricultural High School",
    "street": "Roy Watts Rd, Glenfield",
    "city": "SYDNEY",
    "state": "New South Wales",
    "address": "Roy Watts Rd, Glenfield, New South Wales",
    "latitude": -33.9683739,
    "longitude": 150.8861373,
    "postcode": "2167",
    "program_number": "Program-0247",
    "start_time": "2013-12-09T19:40:00.000Z",
    "event_type": "Standard",
    "year": "10",
    "num_of_events_cohort": 1,
    "students_attended": 150,
    "students_surveyed": 140,
    "help_seeking": 75,
    "engagement": 89
  },
  {
    "name": "Moriah College",
    "street": "Queens Park Road, Queens Park",
    "city": "",
    "state": "New South Wales",
    "address": "Queens Park Road, Queens Park, New South Wales",
    "latitude": -33.8993364,
    "longitude": 151.247093,
    "postcode": "2022",
    "program_number": "Program-0192",
    "start_time": "2014-04-29T20:12:00.000Z",
    "event_type": "Standard",
    "year": "11",
    "num_of_events_cohort": 1,
    "students_attended": 40,
    "students_surveyed": 54,
    "help_seeking": 65,
    "engagement": 87
  },
  {
    "name": "Penrith High School",
    "street": "158-240 High Street, Penrith NSW",
    "city": "SYDNEY",
    "state": "New South Wales",
    "address": "158-240 High Street, Penrith NSW, New South Wales",
    "latitude": -33.7567175,
    "longitude": 150.7065288,
    "postcode": "2750",
    "program_number": "Program-0201",
    "start_time": "2014-09-11T16:18:00.000Z",
    "event_type": "Standard",
    "year": "9",
    "num_of_events_cohort": 1,
    "students_attended": 150,
    "students_surveyed": 129,
    "help_seeking": 55,
    "engagement": 78
  },
  {
    "name": "Rowland Hassall School",
    "street": "Hassall St, Parramatta",
    "city": "Parramatta",
    "state": "New South Wales",
    "address": "Hassall St, Parramatta, New South Wales",
    "latitude": -33.8183583,
    "longitude": 151.0142295,
    "postcode": "2150",
    "program_number": "Program-0212",
    "start_time": "2014-09-16T06:00:00.000Z",
    "event_type": "Standard",
    "year": "9; 10; 11; 12",
    "num_of_events_cohort": 1,
    "students_attended": 40,
    "students_surveyed": "",
    "help_seeking": "",
    "engagement": ""
  },
  {
    "name": "Marist College Penshurst",
    "street": "65 Victoria Ave, Mortdale",
    "city": "SYDNEY",
    "state": "New South Wales",
    "address": "65 Victoria Ave, Mortdale, New South Wales",
    "latitude": -33.9683996,
    "longitude": 151.0827539,
    "postcode": "2223",
    "program_number": "Program-0197",
    "start_time": "2014-06-25T16:00:00.000Z",
    "event_type": "Standard",
    "year": "9; 10",
    "num_of_events_cohort": 1,
    "students_attended": 280,
    "students_surveyed": 132,
    "help_seeking": 61,
    "engagement": 76
  },
  {
    "name": "St Scholastica's College",
    "street": "2-4 Avenue Rd, Glebe NSW",
    "city": "SYDNEY",
    "state": "New South Wales",
    "address": "2-4 Avenue Rd, Glebe NSW, New South Wales",
    "latitude": -33.8759091,
    "longitude": 151.180741,
    "postcode": "2037",
    "program_number": "Program-0261",
    "start_time": "2016-03-02T17:00:00.000Z",
    "event_type": "Standard",
    "year": "10",
    "num_of_events_cohort": 1,
    "students_attended": 170,
    "students_surveyed": "",
    "help_seeking": "",
    "engagement": ""
  },
  {
    "name": "St Gregory's College",
    "street": "100 Badgally Rd, NSW",
    "city": "SYDNEY",
    "state": "New South Wales",
    "address": "100 Badgally Rd, NSW, New South Wales",
    "latitude": -34.0396068,
    "longitude": 150.7871129,
    "postcode": "2557",
    "program_number": "Program-0352",
    "start_time": "2016-07-29T15:45:00.000Z",
    "event_type": "Standard",
    "year": "10; 11; 12",
    "num_of_events_cohort": 1,
    "students_attended": 550,
    "students_surveyed": 335,
    "help_seeking": 77,
    "engagement": 81
  },
  {
    "name": "St Joseph's College",
    "street": "Mark Street, Hunters Hill NSW",
    "city": "SYDNEY",
    "state": "New South Wales",
    "address": "Mark Street, Hunters Hill NSW, New South Wales",
    "latitude": -33.8302121,
    "longitude": 151.1380239,
    "postcode": "2110",
    "program_number": "Program-0291",
    "start_time": "2016-03-01T21:30:00.000Z",
    "event_type": "Standard",
    "year": "9",
    "num_of_events_cohort": 1,
    "students_attended": 160,
    "students_surveyed": 147,
    "help_seeking": 84,
    "engagement": 93
  },
  {
    "name": "Marian College",
    "street": "24 Annangrove Road, Kenthurst NSW",
    "city": "SYDNEY",
    "state": "New South Wales",
    "address": "24 Annangrove Road, Kenthurst NSW, New South Wales",
    "latitude": -33.6830776,
    "longitude": 151.0028233,
    "postcode": "2156",
    "program_number": "Program-0313",
    "start_time": "2016-05-04T16:30:00.000Z",
    "event_type": "Standard",
    "year": "9",
    "num_of_events_cohort": 1,
    "students_attended": 180,
    "students_surveyed": 144,
    "help_seeking": 72,
    "engagement": 76
  },
  {
    "name": "Mater Maria Catholic College",
    "street": "5 Forest Road, Warriewood NSW",
    "city": "SYDNEY",
    "state": "New South Wales",
    "address": "5 Forest Road, Warriewood NSW, New South Wales",
    "latitude": -33.6839832,
    "longitude": 151.284508,
    "postcode": "2102",
    "program_number": "Program-0442",
    "start_time": "2017-06-21T17:10:00.000Z",
    "event_type": "Standard",
    "year": "9",
    "num_of_events_cohort": 1,
    "students_attended": 180,
    "students_surveyed": 158,
    "help_seeking": 72,
    "engagement": 85
  },
  {
    "name": "Moreton Bay Boys' College",
    "street": "302 Manly Road, Manly West QLD",
    "city": "Brisbane",
    "state": "Queensland",
    "address": "302 Manly Road, Manly West QLD, Queensland",
    "latitude": -27.472246,
    "longitude": 153.1738206,
    "postcode": "4179",
    "program_number": "Program-0026",
    "start_time": "2015-05-27T21:00:00.000Z",
    "event_type": "Standard",
    "year": "10; 11; 12",
    "num_of_events_cohort": 1,
    "students_attended": 100,
    "students_surveyed": 70,
    "help_seeking": 64,
    "engagement": 79
  },
  {
    "name": "The Springfield Anglican College",
    "street": "63 Springfield Greenbank Arterial, Springfield",
    "city": "Brisbane",
    "state": "Queensland",
    "address": "63 Springfield Greenbank Arterial, Springfield, Queensland",
    "latitude": -27.6701714,
    "longitude": 152.9063629,
    "postcode": "4300",
    "program_number": "Program-0280",
    "start_time": "2016-07-11T18:00:00.000Z",
    "event_type": "Teacher PD",
    "year": "",
    "num_of_events_cohort": 1,
    "students_attended": 35,
    "students_surveyed": "",
    "help_seeking": "",
    "engagement": ""
  },
  {
    "name": "Brisbane Grammar School",
    "street": "24 Gregory Terrace, Spring Hill",
    "city": "Brisbane",
    "state": "Queensland",
    "address": "24 Gregory Terrace, Spring Hill, Queensland",
    "latitude": -27.4593228,
    "longitude": 153.0174208,
    "postcode": "4000",
    "program_number": "Program-0447",
    "start_time": "2017-10-09T15:30:00.000Z",
    "event_type": "Standard",
    "year": "9",
    "num_of_events_cohort": 1,
    "students_attended": 245,
    "students_surveyed": 230,
    "help_seeking": 74,
    "engagement": 88
  },
  {
    "name": "St Laurence's College",
    "street": "82 Stephens Road, South Brisbane",
    "city": "Brisbane",
    "state": "Queensland",
    "address": "82 Stephens Road, South Brisbane, Queensland",
    "latitude": -27.4860455,
    "longitude": 153.025312,
    "postcode": "4101",
    "program_number": "Program-0289",
    "start_time": "2016-10-14T18:05:00.000Z",
    "event_type": "Standard",
    "year": "10",
    "num_of_events_cohort": 1,
    "students_attended": 270,
    "students_surveyed": 220,
    "help_seeking": 70,
    "engagement": 70
  },
  {
    "name": "Moreton Bay College",
    "street": "450 Wondall Road, Manly West",
    "city": "Brisbane",
    "state": "Queensland",
    "address": "450 Wondall Road, Manly West, Queensland",
    "latitude": -27.4704425,
    "longitude": 153.1522263,
    "postcode": "QLD",
    "program_number": "Program-0277",
    "start_time": "2016-10-13T20:30:00.000Z",
    "event_type": "Standard",
    "year": "11",
    "num_of_events_cohort": 1,
    "students_attended": 120,
    "students_surveyed": 91,
    "help_seeking": 75,
    "engagement": 81
  },
  {
    "name": "St Hilda's School Gold Coast",
    "street": "52 High Street, Southport",
    "city": "Gold Coast",
    "state": "Queensland",
    "address": "52 High Street, Southport, Queensland",
    "latitude": -27.9690391,
    "longitude": 153.4097345,
    "postcode": "4215",
    "program_number": "Program-0663",
    "start_time": "2017-11-21T18:40:00.000Z",
    "event_type": "Standard",
    "year": "10",
    "num_of_events_cohort": 1,
    "students_attended": 100,
    "students_surveyed": 81,
    "help_seeking": 71,
    "engagement": 96
  },
  {
    "name": "Mary MacKillop College (Brisbane)",
    "street": "60 Bage Street, Nundah",
    "city": "Brisbane",
    "state": "Queensland",
    "address": "60 Bage Street, Nundah, Queensland",
    "latitude": -27.4037284,
    "longitude": 153.0585906,
    "postcode": "4012",
    "program_number": "Program-0360",
    "start_time": "2016-09-08T15:40:00.000Z",
    "event_type": "Standard",
    "year": "11",
    "num_of_events_cohort": 1,
    "students_attended": 90,
    "students_surveyed": 73,
    "help_seeking": 76,
    "engagement": 82
  },
  {
    "name": "Rivermount College",
    "street": "Rivermount Drive, Yatala",
    "city": "Brisbane",
    "state": "Queensland",
    "address": "Rivermount Drive, Yatala, Queensland",
    "latitude": -27.7537075,
    "longitude": 153.2003257,
    "postcode": "4207",
    "program_number": "Program-0693",
    "start_time": "2017-07-21T15:45:00.000Z",
    "event_type": "Standard",
    "year": "9; 10",
    "num_of_events_cohort": 1,
    "students_attended": 100,
    "students_surveyed": 95,
    "help_seeking": 75,
    "engagement": 82
  },
  {
    "name": "Clairvaux MacKillop College",
    "street": "24 Klumpp Road, Upper Mount Gravatt",
    "city": "Brisbane",
    "state": "Queensland",
    "address": "24 Klumpp Road, Upper Mount Gravatt, Queensland",
    "latitude": -27.5527866,
    "longitude": 153.0787864,
    "postcode": "4122",
    "program_number": "Program-0100",
    "start_time": "2015-10-15T20:16:00.000Z",
    "event_type": "Standard",
    "year": "10",
    "num_of_events_cohort": 1,
    "students_attended": 240,
    "students_surveyed": 180,
    "help_seeking": 63,
    "engagement": 84
  },
  {
    "name": "Redcliffe State High School",
    "street": "Klingner Rd",
    "city": "Redcliffe",
    "state": "Queensland",
    "address": "Klingner Rd, Queensland",
    "latitude": -27.220742,
    "longitude": 153.097505,
    "postcode": "4020",
    "program_number": "Program-0418",
    "start_time": "2016-10-06T20:30:00.000Z",
    "event_type": "Standard",
    "year": "10",
    "num_of_events_cohort": 1,
    "students_attended": 240,
    "students_surveyed": 154,
    "help_seeking": 71,
    "engagement": 79
  },
  {
    "name": "Aquinas College Gold Coast",
    "street": "Edmund Rice Drive, Ashmore",
    "city": "Gold Coast",
    "state": "Queensland",
    "address": "Edmund Rice Drive, Ashmore, Queensland",
    "latitude": -27.9761976,
    "longitude": 153.3842366,
    "postcode": "4215",
    "program_number": "Program-0758",
    "start_time": "2017-11-14T17:50:00.000Z",
    "event_type": "Standard",
    "year": "10",
    "num_of_events_cohort": 1,
    "students_attended": 150,
    "students_surveyed": 10,
    "help_seeking": 100,
    "engagement": 90
  },
  {
    "name": "Harristown State High School",
    "street": "341-367 South St",
    "city": "Harristown",
    "state": "Queensland",
    "address": "341-367 South St, Queensland",
    "latitude": -27.573155,
    "longitude": 151.9326968,
    "postcode": "4350",
    "program_number": "Program-0455",
    "start_time": "2017-10-10T17:10:00.000Z",
    "event_type": "Standard",
    "year": "9",
    "num_of_events_cohort": 1,
    "students_attended": 300,
    "students_surveyed": 195,
    "help_seeking": 47,
    "engagement": 75
  },
  {
    "name": "Stuartholme School",
    "street": "Birdwood Terrace, Brisbane",
    "city": "Toowong",
    "state": "Queensland",
    "address": "Birdwood Terrace, Brisbane, Queensland",
    "latitude": -27.4718086,
    "longitude": 152.9827529,
    "postcode": "4066",
    "program_number": "Program-0756",
    "start_time": "2017-11-09T16:45:00.000Z",
    "event_type": "Standard",
    "year": "10",
    "num_of_events_cohort": 1,
    "students_attended": 84,
    "students_surveyed": 78,
    "help_seeking": 81,
    "engagement": 94
  },
  {
    "name": "Australian Christian College - Moreton",
    "street": "34 Cottrill Road, Caboolture",
    "city": "Brisbane",
    "state": "Queensland",
    "address": "34 Cottrill Road, Caboolture, Queensland",
    "latitude": -27.0585233,
    "longitude": 152.9527908,
    "postcode": "4510",
    "program_number": "Program-0167",
    "start_time": "2016-10-11T15:50:00.000Z",
    "event_type": "Look Out For Your Mates",
    "year": "11; 12",
    "num_of_events_cohort": 2,
    "students_attended": 85,
    "students_surveyed": 65,
    "help_seeking": 46,
    "engagement": 55
  },
  {
    "name": "Marist College Ashgrove",
    "street": "142 Frasers Road, Ashgrove",
    "city": "Brisbane",
    "state": "Queensland",
    "address": "142 Frasers Road, Ashgrove, Queensland",
    "latitude": -27.4376961,
    "longitude": 152.9805771,
    "postcode": "4060",
    "program_number": "Program-0347",
    "start_time": "2016-10-13T15:35:00.000Z",
    "event_type": "Standard",
    "year": "10",
    "num_of_events_cohort": 1,
    "students_attended": 240,
    "students_surveyed": 209,
    "help_seeking": 68,
    "engagement": 86
  },
  {
    "name": "Bremer State High School",
    "street": "133 -153 Warwick Road",
    "city": "Ipswich",
    "state": "Queensland",
    "address": "133 -153 Warwick Road, Queensland",
    "latitude": -27.6319958,
    "longitude": 152.7551577,
    "postcode": "4305",
    "program_number": "Program-0727",
    "start_time": "2017-11-23T20:00:00.000Z",
    "event_type": "Standard",
    "year": "9",
    "num_of_events_cohort": 1,
    "students_attended": 305,
    "students_surveyed": 56,
    "help_seeking": 63,
    "engagement": 72
  },
  {
    "name": "Clayfield College",
    "street": "23 Gregory Street, Clayfield",
    "city": "Brisbane",
    "state": "Queensland",
    "address": "23 Gregory Street, Clayfield, Queensland",
    "latitude": -27.4196733,
    "longitude": 153.0521066,
    "postcode": "4011",
    "program_number": "Program-0023",
    "start_time": "2015-05-29T06:50:00.000Z",
    "event_type": "Standard",
    "year": "12",
    "num_of_events_cohort": 1,
    "students_attended": 90,
    "students_surveyed": 81,
    "help_seeking": 74,
    "engagement": 94
  },
  {
    "name": "Beenleigh State High School",
    "street": "40 Alamein Street Beenleigh Qld",
    "city": "Brisbane",
    "state": "Queensland",
    "address": "40 Alamein Street Beenleigh Qld, Queensland",
    "latitude": -27.7141511,
    "longitude": 153.2051798,
    "postcode": "4207",
    "program_number": "Program-0391",
    "start_time": "2016-09-05T15:50:00.000Z",
    "event_type": "Standard",
    "year": "9",
    "num_of_events_cohort": 1,
    "students_attended": 130,
    "students_surveyed": 82,
    "help_seeking": 53,
    "engagement": 62
  },
  {
    "name": "Kawana Waters State College",
    "street": "119 Sportsmans Parade",
    "city": "Bokarina",
    "state": "Queensland",
    "address": "119 Sportsmans Parade, Queensland",
    "latitude": -26.7409176,
    "longitude": 153.1261361,
    "postcode": "4575",
    "program_number": "Program-0884",
    "start_time": "2018-02-21T17:00:00.000Z",
    "event_type": "Standard",
    "year": "11",
    "num_of_events_cohort": 1,
    "students_attended": 150,
    "students_surveyed": 107,
    "help_seeking": 58,
    "engagement": 76
  },
  {
    "name": "Ipswich Grammar School",
    "street": "Darling Street, Ipswich",
    "city": "Brisbane",
    "state": "Queensland",
    "address": "Darling Street, Ipswich, Queensland",
    "latitude": -27.6139253,
    "longitude": 152.7537005,
    "postcode": "4305",
    "program_number": "Program-0283",
    "start_time": "2016-05-30T17:00:00.000Z",
    "event_type": "Standard",
    "year": "11",
    "num_of_events_cohort": 1,
    "students_attended": 170,
    "students_surveyed": 132,
    "help_seeking": 55,
    "engagement": 73
  },
  {
    "name": "Mueller College",
    "street": "75 Morris Road, Rothwell QLD",
    "city": "Brisbane",
    "state": "Queensland",
    "address": "75 Morris Road, Rothwell QLD, Queensland",
    "latitude": -27.2122907,
    "longitude": 153.061909,
    "postcode": "4022",
    "program_number": "Program-0390",
    "start_time": "2016-10-05T15:35:00.000Z",
    "event_type": "Standard",
    "year": "11",
    "num_of_events_cohort": 1,
    "students_attended": 110,
    "students_surveyed": 94,
    "help_seeking": 65,
    "engagement": 77
  },
  {
    "name": "St Rita's College Clayfield",
    "street": "41 Enderley Road, Clayfield",
    "city": "Brisbane",
    "state": "Queensland",
    "address": "41 Enderley Road, Clayfield, Queensland",
    "latitude": -27.425151,
    "longitude": 153.0567309,
    "postcode": "4011",
    "program_number": "Program-0198",
    "start_time": "2014-07-21T18:54:00.000Z",
    "event_type": "Standard",
    "year": "12",
    "num_of_events_cohort": 1,
    "students_attended": 120,
    "students_surveyed": 40,
    "help_seeking": 60,
    "engagement": 98
  },
  {
    "name": "Brisbane Girls Grammar School",
    "street": "70 Gregory Terrace, Spring Hill",
    "city": "Brisbane",
    "state": "Queensland",
    "address": "70 Gregory Terrace, Spring Hill, Queensland",
    "latitude": -27.4591477,
    "longitude": 153.0199618,
    "postcode": "4000",
    "program_number": "Program-0024",
    "start_time": "2015-05-27T16:30:00.000Z",
    "event_type": "Standard",
    "year": "11",
    "num_of_events_cohort": 1,
    "students_attended": 245,
    "students_surveyed": 191,
    "help_seeking": 79,
    "engagement": 96
  },
  {
    "name": "Westminster School",
    "street": "1/23 Alison Ave",
    "city": "Marion",
    "state": "South Australia",
    "address": "1/23 Alison Ave, South Australia",
    "latitude": -35.002693,
    "longitude": 138.552585,
    "postcode": "5043",
    "program_number": "Program-0709",
    "start_time": "2017-09-28T21:00:00.000Z",
    "event_type": "Standard",
    "year": "9",
    "num_of_events_cohort": 1,
    "students_attended": 129,
    "students_surveyed": 81,
    "help_seeking": 74,
    "engagement": 80
  },
  {
    "name": "Birdwood High School",
    "street": "Shannon Street",
    "city": "Birdwood",
    "state": "South Australia",
    "address": "Shannon Street, South Australia",
    "latitude": -34.8196415,
    "longitude": 138.9583571,
    "postcode": "5234",
    "program_number": "Program-0894",
    "start_time": "2018-02-28T17:10:00.000Z",
    "event_type": "Standard",
    "year": "10",
    "num_of_events_cohort": 1,
    "students_attended": 80,
    "students_surveyed": "",
    "help_seeking": 52,
    "engagement": 67
  },
  {
    "name": "Avenues College",
    "street": "McKay Avenue",
    "city": "Windsor Gardens",
    "state": "South Australia",
    "address": "McKay Avenue, South Australia",
    "latitude": -34.8608592,
    "longitude": 138.6567232,
    "postcode": "5087",
    "program_number": "Program-0585",
    "start_time": "2017-08-11T19:00:00.000Z",
    "event_type": "Standard",
    "year": "10",
    "num_of_events_cohort": 1,
    "students_attended": 60,
    "students_surveyed": 20,
    "help_seeking": 60,
    "engagement": 85
  },
  {
    "name": "Saint Ignatius College, Adelaide",
    "street": "2 Manresa Court",
    "city": "Athelstone",
    "state": "South Australia",
    "address": "2 Manresa Court, South Australia",
    "latitude": -34.8770144,
    "longitude": 138.6975217,
    "postcode": "5076",
    "program_number": "Program-0659",
    "start_time": "2017-06-26T19:00:00.000Z",
    "event_type": "Standard",
    "year": "9",
    "num_of_events_cohort": 1,
    "students_attended": 142,
    "students_surveyed": 135,
    "help_seeking": 74,
    "engagement": 85
  },
  {
    "name": "Charles La Trobe College",
    "street": "235 Kingsbury Drive",
    "city": "Macleod West",
    "state": "Victoria",
    "address": "235 Kingsbury Drive, Victoria",
    "latitude": -37.6845162,
    "longitude": 145.0000084,
    "postcode": "3085",
    "program_number": "Program-0370",
    "start_time": "2016-08-01T16:30:00.000Z",
    "event_type": "Standard",
    "year": "10; 11; 12",
    "num_of_events_cohort": 1,
    "students_attended": 110,
    "students_surveyed": 88,
    "help_seeking": 58,
    "engagement": 90
  },
  {
    "name": "Methodist Ladies' College Melbourne",
    "street": "207 Barkers Road",
    "city": "Kew",
    "state": "Victoria",
    "address": "207 Barkers Road, Victoria",
    "latitude": -37.8144373,
    "longitude": 145.0384869,
    "postcode": "3101",
    "program_number": "Program-0676",
    "start_time": "2017-11-21T21:25:00.000Z",
    "event_type": "Standard",
    "year": "9",
    "num_of_events_cohort": 1,
    "students_attended": 200,
    "students_surveyed": 124,
    "help_seeking": 75,
    "engagement": 82
  },
  {
    "name": "St James College, Bentleigh East",
    "street": "156 Bignell Road",
    "city": "Bentleigh East",
    "state": "Victoria",
    "address": "156 Bignell Road, Victoria",
    "latitude": -37.9266,
    "longitude": 145.071005,
    "postcode": "3165",
    "program_number": "Program-0793",
    "start_time": "2018-02-14T21:30:00.000Z",
    "event_type": "Standard",
    "year": "9",
    "num_of_events_cohort": 1,
    "students_attended": 85,
    "students_surveyed": 69,
    "help_seeking": 61,
    "engagement": 75
  },
  {
    "name": "Camberwell Girls' Grammar School",
    "street": "2 Torrington Street",
    "city": "Cantebury",
    "state": "Victoria",
    "address": "2 Torrington Street, Victoria",
    "latitude": 41.818257,
    "longitude": -73.1171316,
    "postcode": "3126",
    "program_number": "Program-0256",
    "start_time": "2016-01-29T16:50:00.000Z",
    "event_type": "Standard",
    "year": "12",
    "num_of_events_cohort": 1,
    "students_attended": 101,
    "students_surveyed": 80,
    "help_seeking": 79,
    "engagement": 93
  },
  {
    "name": "Melbourne High School",
    "street": "Forrest Hill",
    "city": "South Yarra",
    "state": "Victoria",
    "address": "Forrest Hill, Victoria",
    "latitude": -37.842,
    "longitude": 145.172,
    "postcode": "3141",
    "program_number": "Program-0010",
    "start_time": "2014-08-01T17:00:00.000Z",
    "event_type": "Standard",
    "year": "11; 12",
    "num_of_events_cohort": 1,
    "students_attended": 100,
    "students_surveyed": 100,
    "help_seeking": 81,
    "engagement": 87
  },
  {
    "name": "Mirboo North Secondary College",
    "street": "Castle Street",
    "city": "Mirboo North",
    "state": "Victoria",
    "address": "Castle Street, Victoria",
    "latitude": 28.8319954,
    "longitude": -96.9194177,
    "postcode": "3871",
    "program_number": "Program-0012",
    "start_time": "2014-07-22T16:30:00.000Z",
    "event_type": "Standard",
    "year": "11",
    "num_of_events_cohort": 1,
    "students_attended": 65,
    "students_surveyed": 53,
    "help_seeking": 68,
    "engagement": 92
  },
  {
    "name": "Kilvington Grammar School",
    "street": "2 Leila Road",
    "city": "Ormond",
    "state": "Victoria",
    "address": "2 Leila Road, Victoria",
    "latitude": -37.899776,
    "longitude": 145.0412589,
    "postcode": "3204",
    "program_number": "Program-0397",
    "start_time": "2016-11-24T22:30:00.000Z",
    "event_type": "Standard",
    "year": "11",
    "num_of_events_cohort": 1,
    "students_attended": 85,
    "students_surveyed": 75,
    "help_seeking": 56,
    "engagement": 75
  },
  {
    "name": "Mater Christi College",
    "street": "28 Bayview Road",
    "city": "Belgrave",
    "state": "Victoria",
    "address": "28 Bayview Road, Victoria",
    "latitude": -38.1575516,
    "longitude": 145.1267342,
    "postcode": "3160",
    "program_number": "Program-0361",
    "start_time": "2016-10-27T18:45:00.000Z",
    "event_type": "Standard",
    "year": "10",
    "num_of_events_cohort": 1,
    "students_attended": 140,
    "students_surveyed": 113,
    "help_seeking": 81,
    "engagement": 95
  },
  {
    "name": "Mentone Girls' Grammar School",
    "street": "11 Mentone Pde",
    "city": "Mentone",
    "state": "Victoria",
    "address": "11 Mentone Pde, Victoria",
    "latitude": -37.9893765,
    "longitude": 145.0645344,
    "postcode": "3194",
    "program_number": "Program-0058",
    "start_time": "2015-05-28T20:45:00.000Z",
    "event_type": "Standard",
    "year": "11",
    "num_of_events_cohort": 1,
    "students_attended": 75,
    "students_surveyed": 59,
    "help_seeking": 96,
    "engagement": 86
  },
  {
    "name": "South Gippsland Secondary College",
    "street": "Cnr Pioneer & Hoodle Rds",
    "city": "Foster",
    "state": "Victoria",
    "address": "Cnr Pioneer & Hoodle Rds, Victoria",
    "latitude": -38.6513214,
    "longitude": 146.1965226,
    "postcode": "3960",
    "program_number": "Program-0003",
    "start_time": "2014-07-23T02:25:00.000Z",
    "event_type": "Standard",
    "year": "9; 10; 11; 12",
    "num_of_events_cohort": 1,
    "students_attended": 80,
    "students_surveyed": 80,
    "help_seeking": "",
    "engagement": ""
  },
  {
    "name": "Nossal High School",
    "street": "100 Clyde Rd",
    "city": "Berwick",
    "state": "Victoria",
    "address": "100 Clyde Rd, Victoria",
    "latitude": -38.0397732,
    "longitude": 145.3395401,
    "postcode": "3806",
    "program_number": "Program-0016",
    "start_time": "2015-02-03T18:00:00.000Z",
    "event_type": "Standard",
    "year": "9",
    "num_of_events_cohort": 1,
    "students_attended": 200,
    "students_surveyed": 194,
    "help_seeking": 60,
    "engagement": 84
  },
  {
    "name": "Lauriston Girls' School",
    "street": "38 Huntingtower Road",
    "city": "Armadale",
    "state": "Victoria",
    "address": "38 Huntingtower Road, Victoria",
    "latitude": -37.8521442,
    "longitude": 145.0251119,
    "postcode": "3143",
    "program_number": "Program-0565",
    "start_time": "2017-05-03T17:50:00.000Z",
    "event_type": "Standard",
    "year": "10",
    "num_of_events_cohort": 1,
    "students_attended": 75,
    "students_surveyed": 72,
    "help_seeking": 70,
    "engagement": 85
  },
  {
    "name": "Eltham High School",
    "street": "30-60 Withers Way",
    "city": "Eltham",
    "state": "Victoria",
    "address": "30-60 Withers Way, Victoria",
    "latitude": -37.7246047,
    "longitude": 145.1415497,
    "postcode": "3095",
    "program_number": "Program-0403",
    "start_time": "2016-08-15T17:12:00.000Z",
    "event_type": "Standard",
    "year": "9",
    "num_of_events_cohort": 1,
    "students_attended": 250,
    "students_surveyed": 131,
    "help_seeking": 63,
    "engagement": 75
  },
  {
    "name": "Box Hill High School",
    "street": "1180 Whitehorse Road",
    "city": "Box Hill",
    "state": "Victoria",
    "address": "1180 Whitehorse Road, Victoria",
    "latitude": -37.8197806,
    "longitude": 145.1376106,
    "postcode": "3128",
    "program_number": "Program-0501",
    "start_time": "2017-05-08T17:30:00.000Z",
    "event_type": "Standard",
    "year": "11",
    "num_of_events_cohort": 1,
    "students_attended": 200,
    "students_surveyed": 185,
    "help_seeking": 51,
    "engagement": 64
  },
  {
    "name": "Ivanhoe Grammar School",
    "street": "PO Box 91 The Ridgeway",
    "city": "Ivanhoe",
    "state": "Victoria",
    "address": "PO Box 91 The Ridgeway, Victoria",
    "latitude": -37.7739914,
    "longitude": 145.0438415,
    "postcode": "3079",
    "program_number": "Program-0691",
    "start_time": "2017-08-14T18:10:00.000Z",
    "event_type": "Standard",
    "year": "10",
    "num_of_events_cohort": 1,
    "students_attended": 68,
    "students_surveyed": 58,
    "help_seeking": 67,
    "engagement": 78
  },
  {
    "name": "Ruyton Girls' School",
    "street": "12 Selbourne Road",
    "city": "Kew",
    "state": "Victoria",
    "address": "12 Selbourne Road, Victoria",
    "latitude": -37.8123642,
    "longitude": 145.0386778,
    "postcode": "3101",
    "program_number": "Program-0278",
    "start_time": "2016-03-22T15:50:00.000Z",
    "event_type": "Standard",
    "year": "9",
    "num_of_events_cohort": 1,
    "students_attended": 90,
    "students_surveyed": 83,
    "help_seeking": 81,
    "engagement": 95
  },
  {
    "name": "Westbourne Grammar School",
    "street": "300 Sayers Rd",
    "city": "Truganina",
    "state": "Victoria",
    "address": "300 Sayers Rd, Victoria",
    "latitude": -37.8509228,
    "longitude": 144.7253797,
    "postcode": "3029",
    "program_number": "Program-0512",
    "start_time": "2017-04-28T19:00:00.000Z",
    "event_type": "Standard",
    "year": "11",
    "num_of_events_cohort": 1,
    "students_attended": 150,
    "students_surveyed": 134,
    "help_seeking": 56,
    "engagement": 63
  },
  {
    "name": "Brighton Secondary College",
    "street": "120 Marriage St",
    "city": "Brighton East",
    "state": "Victoria",
    "address": "120 Marriage St, Victoria",
    "latitude": -37.9203792,
    "longitude": 145.0191103,
    "postcode": "3187",
    "program_number": "Program-0724",
    "start_time": "2017-09-18T18:05:00.000Z",
    "event_type": "Standard",
    "year": "9",
    "num_of_events_cohort": 1,
    "students_attended": 160,
    "students_surveyed": 126,
    "help_seeking": 56,
    "engagement": 58
  },
  {
    "name": "Thomas Carr College",
    "street": "35 Thomas Carr Drive",
    "city": "Terneti",
    "state": "Victoria",
    "address": "35 Thomas Carr Drive, Victoria",
    "latitude": -37.8477206,
    "longitude": 144.7022047,
    "postcode": "3029",
    "program_number": "Program-0800",
    "start_time": "2017-12-07T21:45:00.000Z",
    "event_type": "Standard",
    "year": "11",
    "num_of_events_cohort": 1,
    "students_attended": 175,
    "students_surveyed": 126,
    "help_seeking": 69,
    "engagement": 81
  },
  {
    "name": "Catholic Regional College - Melton",
    "street": "109-141 Bulmans Rd",
    "city": "West Melton",
    "state": "Victoria",
    "address": "109-141 Bulmans Rd, Victoria",
    "latitude": -37.6769588,
    "longitude": 144.549823,
    "postcode": "3337",
    "program_number": "Program-0138",
    "start_time": "2015-10-28T19:00:00.000Z",
    "event_type": "Standard",
    "year": "10",
    "num_of_events_cohort": 1,
    "students_attended": 170,
    "students_surveyed": 109,
    "help_seeking": 51,
    "engagement": 75
  },
  {
    "name": "Catholic Regional College - North Keilor",
    "street": "PO Box 113",
    "city": "Keilor",
    "state": "Victoria",
    "address": "PO Box 113, Victoria",
    "latitude": 45.5007668,
    "longitude": -73.5617652999999,
    "postcode": "3036",
    "program_number": "Program-0734",
    "start_time": "2017-09-20T18:10:00.000Z",
    "event_type": "Standard",
    "year": "9",
    "num_of_events_cohort": 1,
    "students_attended": 140,
    "students_surveyed": 117,
    "help_seeking": 60,
    "engagement": 72
  },
  {
    "name": "Kew High School",
    "street": "1393 Burke Road",
    "city": "East Kew",
    "state": "Victoria",
    "address": "1393 Burke Road, Victoria",
    "latitude": -37.795756,
    "longitude": 145.063284,
    "postcode": "3102",
    "program_number": "Program-0588",
    "start_time": "2017-10-14T06:25:00.000Z",
    "event_type": "Look Out For Your Mates",
    "year": "10",
    "num_of_events_cohort": 2,
    "students_attended": 160,
    "students_surveyed": 146,
    "help_seeking": 57,
    "engagement": 65
  },
  {
    "name": "Fintona Girls' School",
    "street": "79 Balwyn Road",
    "city": "Balwyn",
    "state": "Victoria",
    "address": "79 Balwyn Road, Victoria",
    "latitude": -37.8147984999999,
    "longitude": 145.080763,
    "postcode": "3103",
    "program_number": "Program-0729",
    "start_time": "2017-10-18T20:45:00.000Z",
    "event_type": "Standard",
    "year": "9",
    "num_of_events_cohort": 1,
    "students_attended": 53,
    "students_surveyed": 39,
    "help_seeking": 51,
    "engagement": 69
  },
  {
    "name": "Our Lady of Mercy College, Heidelberg",
    "street": "52 Cape Street",
    "city": "Heidelberg",
    "state": "Victoria",
    "address": "52 Cape Street, Victoria",
    "latitude": -37.7575334,
    "longitude": 145.0671117,
    "postcode": "3084",
    "program_number": "Program-0508",
    "start_time": "2017-08-29T19:00:00.000Z",
    "event_type": "Standard",
    "year": "11",
    "num_of_events_cohort": 1,
    "students_attended": 180,
    "students_surveyed": 141,
    "help_seeking": 70,
    "engagement": 68
  },
  {
    "name": "Ave Maria College",
    "street": "14-22 Vida Street",
    "city": "Aberfeldie",
    "state": "Victoria",
    "address": "14-22 Vida Street, Victoria",
    "latitude": -37.7570197,
    "longitude": 144.8983071,
    "postcode": "3193",
    "program_number": "Program-0690",
    "start_time": "2017-08-04T18:15:00.000Z",
    "event_type": "Standard",
    "year": "9",
    "num_of_events_cohort": 1,
    "students_attended": 130,
    "students_surveyed": 107,
    "help_seeking": 59,
    "engagement": 79
  },
  {
    "name": "Our Lady of the Sacred Heart College, Bentleigh",
    "street": "111 Jasper Road",
    "city": "Bentleigh",
    "state": "Victoria",
    "address": "111 Jasper Road, Victoria",
    "latitude": -37.9251665,
    "longitude": 145.0400861,
    "postcode": "3204",
    "program_number": "Program-0765",
    "start_time": "2017-12-07T17:30:00.000Z",
    "event_type": "Standard",
    "year": "10",
    "num_of_events_cohort": 1,
    "students_attended": 100,
    "students_surveyed": 89,
    "help_seeking": 75,
    "engagement": 92
  },
  {
    "name": "John Paul College - Melbourne",
    "street": "McMahons Road",
    "city": "Frankston",
    "state": "Victoria",
    "address": "McMahons Road, Victoria",
    "latitude": -38.1425348,
    "longitude": 145.1372082,
    "postcode": "3199",
    "program_number": "Program-0182",
    "start_time": "2016-08-02T18:40:00.000Z",
    "event_type": "Standard",
    "year": "10",
    "num_of_events_cohort": 1,
    "students_attended": 120,
    "students_surveyed": 92,
    "help_seeking": 53,
    "engagement": 73
  },
  {
    "name": "De La Salle College - Melbourne",
    "street": "1318 High Street",
    "city": "Malvern",
    "state": "Victoria",
    "address": "1318 High Street, Victoria",
    "latitude": 28.8070777,
    "longitude": -97.0034592999999,
    "postcode": "3144",
    "program_number": "Program-0469",
    "start_time": "2017-11-03T18:05:00.000Z",
    "event_type": "Standard",
    "year": "10",
    "num_of_events_cohort": 1,
    "students_attended": 200,
    "students_surveyed": 112,
    "help_seeking": 59,
    "engagement": 71
  },
  {
    "name": "St Bernard's College",
    "street": "41 Rosehill Rd",
    "city": "Essendon",
    "state": "Victoria",
    "address": "41 Rosehill Rd, Victoria",
    "latitude": -37.737096,
    "longitude": 145.125632,
    "postcode": "3040",
    "program_number": "Program-0470",
    "start_time": "2017-03-10T17:00:00.000Z",
    "event_type": "Standard",
    "year": "12",
    "num_of_events_cohort": 1,
    "students_attended": 240,
    "students_surveyed": 172,
    "help_seeking": 66,
    "engagement": 92
  },
  {
    "name": "Copperfield College",
    "street": "70 Goldsmith Ave",
    "city": "Delahey",
    "state": "Victoria",
    "address": "70 Goldsmith Ave, Victoria",
    "latitude": -37.796577,
    "longitude": 145.226341,
    "postcode": "3037",
    "program_number": "Program-0865",
    "start_time": "2018-03-08T17:15:00.000Z",
    "event_type": "Standard",
    "year": "10",
    "num_of_events_cohort": 1,
    "students_attended": 150,
    "students_surveyed": "",
    "help_seeking": "",
    "engagement": ""
  },
  {
    "name": "St Leonard's College - Brighton",
    "street": "163 South Road",
    "city": "Brighton East",
    "state": "Victoria",
    "address": "163 South Road, Victoria",
    "latitude": -37.9285238,
    "longitude": 145.0074412,
    "postcode": "3187",
    "program_number": "Program-0471",
    "start_time": "2017-05-04T15:30:00.000Z",
    "event_type": "Standard",
    "year": "10",
    "num_of_events_cohort": 1,
    "students_attended": 190,
    "students_surveyed": 140,
    "help_seeking": 67,
    "engagement": 74
  },
  {
    "name": "Xavier College",
    "street": "135 Barkers Road",
    "city": "Kew",
    "state": "Victoria",
    "address": "135 Barkers Road, Victoria",
    "latitude": -37.8124081,
    "longitude": 145.0316451,
    "postcode": "3101",
    "program_number": "Program-0675",
    "start_time": "2017-06-14T20:45:00.000Z",
    "event_type": "Standard",
    "year": "9",
    "num_of_events_cohort": 1,
    "students_attended": 250,
    "students_surveyed": 198,
    "help_seeking": 73,
    "engagement": 81
  },
  {
    "name": "Salesian College Chadstone",
    "street": "Bosco St",
    "city": "Chadstone",
    "state": "Victoria",
    "address": "Bosco St, Victoria",
    "latitude": -37.8819791,
    "longitude": 145.1003271,
    "postcode": "3148",
    "program_number": "Program-0611",
    "start_time": "2017-09-08T18:07:00.000Z",
    "event_type": "Standard",
    "year": "9",
    "num_of_events_cohort": 1,
    "students_attended": 182,
    "students_surveyed": 162,
    "help_seeking": 46,
    "engagement": 66
  },
  {
    "name": "Genazzano FCJ College",
    "street": "301 Cotham Road",
    "city": "Kew",
    "state": "Victoria",
    "address": "301 Cotham Road, Victoria",
    "latitude": -37.8087291,
    "longitude": 145.0560149,
    "postcode": "3101",
    "program_number": "Program-0635",
    "start_time": "2017-08-09T18:20:00.000Z",
    "event_type": "Standard",
    "year": "10",
    "num_of_events_cohort": 1,
    "students_attended": 150,
    "students_surveyed": 120,
    "help_seeking": 77,
    "engagement": 83
  },
  {
    "name": "Flinders Christian Community College - Carrum Downs",
    "street": "PO Box 8383",
    "city": "Carrum Downs",
    "state": "Victoria",
    "address": "PO Box 8383, Victoria",
    "latitude": 37.2718117,
    "longitude": -6.9295199,
    "postcode": "3201",
    "program_number": "Program-0647",
    "start_time": "2017-05-24T18:00:00.000Z",
    "event_type": "Standard",
    "year": "9; 10",
    "num_of_events_cohort": 1,
    "students_attended": 300,
    "students_surveyed": 79,
    "help_seeking": 57,
    "engagement": 58
  },
  {
    "name": "Emmaus College - Burwood Campus",
    "street": "285 Warrigal Road",
    "city": "Burwood",
    "state": "Victoria",
    "address": "285 Warrigal Road, Victoria",
    "latitude": -37.8486845,
    "longitude": 145.0961225,
    "postcode": "3125",
    "program_number": "Program-0389",
    "start_time": "2016-09-03T05:55:00.000Z",
    "event_type": "Standard",
    "year": "9",
    "num_of_events_cohort": 1,
    "students_attended": 225,
    "students_surveyed": 197,
    "help_seeking": 86,
    "engagement": 96
  },
  {
    "name": "Melbourne Grammar School",
    "street": "355 St Kilda Road",
    "city": "Melbourne",
    "state": "Victoria",
    "address": "355 St Kilda Road, Victoria",
    "latitude": -37.8334509,
    "longitude": 144.9759112,
    "postcode": "3004",
    "program_number": "Program-0597",
    "start_time": "2017-05-29T20:10:00.000Z",
    "event_type": "Standard",
    "year": "9",
    "num_of_events_cohort": 1,
    "students_attended": 40,
    "students_surveyed": 25,
    "help_seeking": 100,
    "engagement": 84
  },
  {
    "name": "Frankston High School",
    "street": "97 Foot St",
    "city": "Frankston",
    "state": "Victoria",
    "address": "97 Foot St, Victoria",
    "latitude": 48.4243582999999,
    "longitude": -123.3434196,
    "postcode": "3199",
    "program_number": "Program-0711",
    "start_time": "2017-10-19T16:00:00.000Z",
    "event_type": "Standard",
    "year": "10",
    "num_of_events_cohort": 2,
    "students_attended": 75,
    "students_surveyed": 60,
    "help_seeking": 65,
    "engagement": 82
  },
  {
    "name": "Geelong Grammar School",
    "street": "50 Biddlecombe Avenue",
    "city": "Corio",
    "state": "Victoria",
    "address": "50 Biddlecombe Avenue, Victoria",
    "latitude": -38.0696029,
    "longitude": 144.397354,
    "postcode": "3214",
    "program_number": "Program-0677",
    "start_time": "2017-06-19T20:30:00.000Z",
    "event_type": "Standard",
    "year": "11",
    "num_of_events_cohort": 1,
    "students_attended": 230,
    "students_surveyed": 140,
    "help_seeking": 73,
    "engagement": 72
  },
  {
    "name": "Parade College",
    "street": "1436 Plenty Road",
    "city": "Bundoora",
    "state": "Victoria",
    "address": "1436 Plenty Road, Victoria",
    "latitude": -37.6901964,
    "longitude": 145.0651735,
    "postcode": "3083",
    "program_number": "Program-0564",
    "start_time": "2017-05-10T18:00:00.000Z",
    "event_type": "Standard",
    "year": "9",
    "num_of_events_cohort": 1,
    "students_attended": 312,
    "students_surveyed": 201,
    "help_seeking": 59,
    "engagement": 64
  },
  {
    "name": "Catholic College Wodonga",
    "street": "1 Bowman Ct, Wodonga",
    "city": "Wodonga",
    "state": "Victoria",
    "address": "1 Bowman Ct, Wodonga, Victoria",
    "latitude": -36.129732,
    "longitude": 146.8624732,
    "postcode": "3690",
    "program_number": "Program-0237",
    "start_time": "2013-10-15T16:00:00.000Z",
    "event_type": "",
    "year": "7; 8; 9; 10; 11; 12",
    "num_of_events_cohort": "",
    "students_attended": 1100,
    "students_surveyed": "",
    "help_seeking": "",
    "engagement": ""
  },
  {
    "name": "Donvale Christian College",
    "street": "155 Tindale Road",
    "city": "Donvale",
    "state": "Victoria",
    "address": "155 Tindale Road, Victoria",
    "latitude": -37.7739818,
    "longitude": 145.1944615,
    "postcode": "3111",
    "program_number": "Program-0694",
    "start_time": "2017-09-14T16:30:00.000Z",
    "event_type": "Standard",
    "year": "9",
    "num_of_events_cohort": 1,
    "students_attended": 125,
    "students_surveyed": 107,
    "help_seeking": 72,
    "engagement": 83
  },
  {
    "name": "Sacred Heart Girls' College Oakleigh",
    "street": "113 Warrigal Road",
    "city": "Hughesdale",
    "state": "Victoria",
    "address": "113 Warrigal Road, Victoria",
    "latitude": -37.8352359999999,
    "longitude": 145.098557,
    "postcode": "3166",
    "program_number": "Program-0689",
    "start_time": "2017-11-01T19:15:00.000Z",
    "event_type": "Standard",
    "year": "11",
    "num_of_events_cohort": 1,
    "students_attended": 165,
    "students_surveyed": 141,
    "help_seeking": 54,
    "engagement": 64
  }
]